city,country,lat,long
Clearwater,US,27.971165,-82.696938
Louisville,US,38.25702035,-85.76001328
Puyallup,US,47.154828,-122.303992
Oberlin,US,41.29082277,-82.21764028
Pleasant Hill,US,37.94566339,-122.0619969
Houston,US,29.7336,-95.4146
Nashville,US,36.11988,-86.718505
Orfordville,US,42.635024,-89.2681673
Oxford,US,34.36802,-89.51839
Northbrook,US,42.151959,-87.821541
Indianapolis,US,39.869489,-86.146425
Boston,US,42.360313,-71.07081
Delta,US,41.574067,-84.007303
Omaha,US,41.257512,-95.96932
Waite Park,US,45.553367,-94.222893
Berea,US,41.372713,-81.861268
New Haven,US,41.306473,-72.92925
Roy,US,41.161688,-112.02635
Beverly Hills,US,34.063736,-118.39906
Brooklyn,US,40.613661,-74.032944
Rockport,US,44.187611,-69.080978
Port Washington,US,43.38859854,-87.86843777
Lakewood,US,41.48528552,-81.8001169
Richmond,US,37.5078,-77.61048
New York,US,40.742497,-73.982924
Ann Arbor,US,42.2786379,-83.748629
El Dorado Hills,US,38.710194,-121.08649
New York City,US,40.72,-73.99
Boca Raton,US,26.368259,-80.079496
Austin,US,30.295368,-97.742054
Raleigh,US,35.864586,-78.57033
New York,US,40.729355,-73.99889
San Francisco,US,37.800114,-122.43395
Cleburne,US,32.343822,-97.38574
Irvine,US,33.70622,-117.78608
Pittsburgh,US,40.439189,-79.95552
Homestead,US,25.291986,-80.610489
Cypress,US,29.98436,-95.726364
N Eastham,US,41.87687874,-69.986981
Fort Worth,US,32.857124,-97.311713
Richardson,US,32.977234,-96.73896
Herndon,US,38.97007553,-77.37533744
Falls Church,US,38.875165,-77.2009447
New York,US,40.73792,-73.996636
Kew Gardens,US,40.70884,-73.83047
Gilbert,US,33.33222,-111.806915
Vashon,US,47.445293,-122.4605
Huntington Beach,US,33.71566,-117.99121
New Orleans,US,29.94,-90.07
Austin,US,30.134521,-97.797746
Tacoma,US,47.27108,-122.48888
Los Angeles,US,34.0551574,-118.3870717
Tustin,US,33.742073,-117.82253
Chaska,US,44.78849,-93.60154
Grand Prairie,US,32.6759561,-97.0069343
Massapequa Park,US,40.67795,-73.4561
Denville,US,40.89117917,-74.4750301
Brooklyn,US,40.7038325,-73.9410228
Los Angeles,US,34.0200276,-118.2869327
San Antonio,US,29.561407,-98.589474
Gulfport,US,27.740406,-82.707436
New York,US,40.806047,-73.956346
Torrance,US,33.83081,-118.29023
Seattle,US,47.620018,-122.3209
San Antonio,US,29.534328,-98.450424
Farmers Branch,US,32.9135849,-96.8731514
Brownsville,US,25.970621,-97.513984
Brooklyn,US,40.714718,-73.961358
New York,US,40.74045,-74.00202
Columbus,US,40.00031,-82.93268
New York,US,40.7303,-73.98334
Matawan,US,40.406914,-74.23399
Ann Arbor,US,42.245075,-83.6996
Houston,US,29.816671,-95.464829
Salt Lake City,US,40.70257,-111.85171
San Antonio,US,29.5465482,-98.3667046
Boston,US,42.344154,-71.07129
Brooklyn,US,40.650753,-73.95608
Los Angeles,US,34.076432,-118.350776
Jackson,US,43.481014,-110.76371
Lancaster,US,34.67489,-118.15114
Humble,US,30.004982,-95.255855
Miami,US,41.0448473,-71.9329669
Brockport,US,43.214825,-77.93847
Venice,US,33.9905837,-118.4667019
Dallas,US,32.936388,-96.749674
Allen,US,33.102488,-96.67723
Arlington,US,38.8799728,-77.1139409
Lancaster,US,40.0391808,-76.3059926
Highland Park,US,42.42881,-83.11274
Jacksonville,US,30.310156,-81.65471
Lexington,US,38.02967,-84.49067
Winston Salem,US,36.098427,-80.244896
Las Vegas,US,36.194185,-115.025484
Portsmouth,US,43.075977,-70.76018
Burlingame,US,37.5845,-122.365
Las Vegas,US,36.13113,-115.27895
Delaware Water Gap,US,40.98348,-75.14137
Castle Hills,US,29.5196806,-98.517952
Ferndale,US,42.46031719,-83.1365062
Los Angeles,US,34.098034,-118.354256
Philadelphia,US,39.952759,-75.192776
Bryn Mawr,US,40.022405,-75.319594
Parkland,US,26.3192783,-80.2074946
Cos Cob,US,41.03641,-73.60017
Mckinney,US,33.216689,-96.632698
New York,US,40.723776,-73.988494
Rochester,US,44.02919,-92.47765
Lowell,US,42.645084,-71.309685
Berkeley,US,37.872162,-122.26708
Alexandria,US,38.8041439,-77.0403888
Corryton,US,36.175114,-83.80265
Arnold,US,38.254658,-120.35374
Portland,US,45.52,-122.69
Livingston,US,40.794256,-74.339414
Lakeland,US,28.01379,-81.957184
Fort Bragg,US,39.432594,-123.8015
Fairfield,US,41.006512,-91.972115
Tallahassee,US,30.487769,-84.237784
Emporium,US,41.51158,-78.236496
Grand Forks,US,47.889516,-97.075117
Hattiesburg,US,31.321438,-89.38336
Plymouth,US,42.358898,-83.462407
Conyers,US,33.626164,-83.977192
Ozark,US,31.458706,-85.627054
Northfield,US,44.45775,-93.15933
Plymouth,US,43.53019,-72.73833
Irving,US,32.84556,-96.95073
Roy,US,41.1750005,-112.0258373
Erie,US,42.08015637,-80.16064865
Oak Harbor,US,48.325886,-122.66655
Fairfield,US,41.01121,-91.96375
Alpharetta,US,34.021749,-84.271852
Statesboro,US,32.409438,-81.77611
Nashville,US,33.921127,-93.8591
Artesia,US,33.860573,-118.08159
Oakes,US,46.13879,-98.091807
Atlanta,US,33.781971,-84.38022
Maumee,US,41.579407,-83.69358
Las Vegas,US,36.0989418,-115.1368275
Manhattan Beach,US,33.885937,-118.40804
Brooklyn,US,40.613813,-73.981559
Luzerne,US,41.28311,-75.89318
Mount Juliet,US,36.176748,-86.511497
Mesquite,US,32.808887,-96.6269
Pickerington,US,39.919439,-82.780664
S Richmond Hill,US,40.691595,-73.811686
Westminster,US,39.91407,-104.99717
Horsham,US,40.15891,-75.1437
University Park,US,27.392363,-82.45274
Richmond Hill,US,31.94065,-81.30527
Silverdale,US,47.65697,-122.686674
Huntersville,US,35.4394949,-80.8443805
Troy,US,48.455328,-115.890011
Anahola,US,22.05728,-159.54657
Las Vegas,US,36.091777,-115.207252
Kerrville,US,30.053864,-99.135363
Jamaica Plain,US,42.3315406,-71.1118961
Cottonwood,US,34.725169,-112.006554
Waxahachie,US,32.3841903,-96.8501003
Acworth,US,34.06572282,-84.67719125
New York,US,40.745073,-73.99767
Panguitch,US,37.81256,-112.43565
Seattle,US,47.691812,-122.355103
Burlington,US,40.80884,-91.10429
Lava Hot Springs,US,42.61984,-112.00911
Nashville,US,36.17331328,-86.73978343
Timonium,US,39.43805738,-76.6255939
Beckley,US,37.811435,-81.183374
Fort Lauderdale,US,26.189338,-80.285603
Los Angeles,US,34.029462,-118.389053
Bastrop,US,30.2126334,-97.1110239
Jeffersonville,US,39.620426,-83.60348
Henderson,US,36.00542,-115.11783
Amherst,US,42.372906,-72.50178
Houston,US,29.936797,-95.578486
Fresno,US,36.73703,-119.700653
Frenchtown,US,40.52271,-75.06216
Florence,US,32.165455,-90.13049
Rochester,US,44.020254,-92.464227
Medford,US,42.31473,-122.81599
Seattle,US,47.69174,-122.3553
Dallas,US,32.822741,-96.857315
Willmar,US,45.120684,-95.054113
Brooklyn,US,40.6803966,-73.9777637
Mammoth Lakes,US,37.65077,-118.98492
Sarasota,US,27.258724,-82.524692
Lagunaniguel,US,33.570445,-117.713696
Sanfrancisco,US,37.786836,-122.450135
Hollywood,US,34.105503,-118.318624
Beverlyhills,US,34.068798,-118.407294
Losangeles,US,34.041762,-118.459527
Beverlyhills,US,34.070254,-118.401634
Marinadelrey,US,33.989632,-118.447194
Santamonica,US,34.004337,-118.485817
Costamesa,US,33.67745,-117.886985
Santamonica,US,34.089383,-118.259289
Losangeles,US,34.058957,-118.444833
Madison,US,32.467245,-90.147961
Dyer,US,36.059785,-88.987355
Westlakevillage,US,34.15333,-118.828076
Westlakevillage,US,34.154951,-118.831343
Solanabeach,US,32.991392,-117.272758
Brea,US,33.917356,-117.900489
Raleigh,US,35.779435,-78.644006
Orange,US,33.782984,-117.893462
Cary,US,35.802546,-78.769729
Raleigh,US,35.869229,-78.622517
Mountainview,US,37.386596,-122.083242
Colfax,US,39.093595,-120.951912
Southlaketahoe,US,38.942212,-119.977325
Sanjose,US,37.366056,-121.915144
Sanjose,US,37.322913,-121.990691
Sanjose,US,37.252474,-121.861289
Groverbeach,US,35.121617,-120.627853
Bakersfield,US,35.373397,-119.013886
Vacaville,US,38.348064,-121.996854
Schenectady,US,42.81107,-73.941829
Bigsur,US,35.883769,-121.455831
Elkgrove,US,38.413792,-121.470949
Napa,US,38.30036,-122.286293
Vallejo,US,38.123751,-122.263517
Santaclara,US,37.353989,-121.997806
Sacramento,US,38.560229,-121.486689
Sacramento,US,38.511069,-121.408689
Southlaketahoe,US,38.90786,-120.000635
Goodlettsville,US,36.321117,-86.702321
Nashville,US,36.14481,-86.806455
Hendersonville,US,36.3058,-86.634924
Birmingham,US,33.499949,-86.797315
Nashville,US,36.102537,-86.818739
Charlotte,US,35.147361,-80.833041
Charlotte,US,35.194894,-80.767443
Monroe,US,35.024411,-80.578208
New York,US,40.757803,-73.966051
Jackson,US,42.259243,-84.42829
Brooklyn,US,40.62806,-74.029181
Laguna Hills,US,33.608821,-117.700938
Pompano Beach,US,26.244589,-80.190947
Franklin,US,35.947024,-86.822318
Mammoth Lakes,US,37.637547,-118.96687
Milwaukee,US,43.08912,-87.894966
Duluth,US,46.784942,-92.100708
Langhorne,US,40.1788542,-74.8798554
Downingtown,US,40.01592,-75.68563
Weston,US,39.008748,-80.393953
Stanford,US,37.43298,-122.17049
Charleston,US,32.716984,-79.967619
Truckee,US,39.32544,-120.19127
Mount Pleasant,US,32.830757,-79.83085
Orlando,US,28.629306,-81.462096
Brattleboro,US,42.8514562,-72.59627366
Springdale,US,37.19821,-112.991356
Clemmons,US,36.017944,-80.40941
Williamsville,US,42.951155,-78.696906
Las Vegas,US,36.158926,-115.291415
Chelan,US,47.83994,-120.018196
Rochester,US,43.097958,-77.63102
Spartanburg,US,34.9703,-81.9296
Harrisburg,US,40.26792,-76.88767
Brook Park,US,41.4039294,-81.8089817
Baltimore,US,39.373114,-76.508152
Colorado Springs,US,38.848167,-104.86428
Cody,US,44.596838,-108.976191
Lambertville,US,40.36678,-74.944
Jasper,US,35.085683,-85.606387
Gurnee,US,42.385881,-87.962347
Woodland Park,US,38.992458,-105.059401
Las Vegas,US,36.016698,-115.173127
Hollywood,US,26.008981,-80.257104
Veradale,US,47.657057,-117.193833
Seattle,US,37.689683,-121.032552
Valencia,US,34.419563,-118.54542
Miami,US,25.760671,-80.201192
New York,US,40.726338,-73.988915
Robinson,US,31.4959173,-97.1516405
San Francisco,US,37.73,-122.47
Chino,US,34.03367,-117.68571
St. Marys,US,30.75668,-81.59583
Wasilla,US,61.58519,-149.32341
Jersey City,US,40.735216,-74.064195
Sherman Oaks,US,34.151291,-118.452271
Captain Cook,US,19.487522,-155.90651
Laramie,US,41.312009,-105.595758
San Francisco,US,37.7852485,-122.4314288
Moline,US,41.49246,-90.536177
Waltham,US,42.368145,-71.23776
Bethesda,US,38.98066,-77.09696
Evanston,US,42.046314,-87.680021
Greensboro,US,36.060596,-79.910545
Jacksonville Beach,US,30.286145,-81.391436
Los Angeles,US,34.050255,-118.437349
Seminole,US,32.698753,-102.713509
Roslindale,US,42.286377,-71.136995
N Palm Beach,US,26.85072,-80.06169
Ocala,US,29.16538,-82.163574
Queensbury,US,43.33037,-73.69827
Redmond,US,47.672264,-122.11939
New York,US,40.726981,-73.988127
Salem,US,42.522957,-70.88728
Oshkosh,US,44.024765,-88.56737
Amarillo,US,35.1770963,-101.9382012
San Jose,US,37.32051,-121.949265
Saint Petersburg,US,27.79644186,-82.63819706
Redondo Beach,US,33.817927,-118.385527
Rosebud,US,31.073895,-96.979256
Fort Worth,US,32.670285,-97.322788
Houston,US,29.907653,-95.584516
Knoxville,US,35.941196,-84.0918
Santa Monica,US,34.017967,-118.4904
Lake Delton,US,43.5873,-89.784195
Seattle,US,47.62026129,-122.3207112
Middlebury,US,44.01493837,-73.16505966
Richardson,US,32.9512294,-96.7673709
Los Angeles,US,34.0451164,-118.2497439
Houston,US,29.6861182,-95.5584026
Ferndale,US,42.4608018,-83.13605062
Fountain Valley,US,33.709957,-117.95452
New Orleans,US,29.945484,-90.069877
Detroit,US,42.35133,-83.065605
Mount Rainier,US,38.938582,-76.9607518
Pasadena,US,34.14578,-118.14954
Santa Fe,US,35.639392,-106.011668
Seattle,US,47.66138,-122.33847
Ellsworth,US,44.541203,-68.42511
Boston,US,42.34937,-71.08334
Johnson City,US,36.30145,-82.37771
New Haven,US,41.307747,-72.93206
Fort Myers,US,26.555674,-81.87841
Paw Paw,US,42.21752,-85.89305
Venice,US,27.09991,-82.44915
Hoboken,US,40.74237,-74.03614
Santa Rosa,US,38.441097,-122.71454
Marietta,US,33.95075,-84.51017
Houston,US,29.758212,-95.365137
Los Angeles,US,34.047611,-118.324181
Sacramento,US,38.5802,-121.49053
Marion,US,42.027924,-91.62435
Los Angeles,US,34.0221159,-118.334661
Wesley Chapel,US,28.237477,-82.32573
Reno,US,39.52442,-119.81941
Cambridge,US,42.372102,-71.120358
Azle,US,32.9366531,-97.543504
Phoenix,US,33.319257,-111.977785
Manitou Springs,US,38.85943,-104.919717
Memphis,US,35.14128164,-90.03758223
Clinton Twp,US,42.604099,-82.95241
Studio City,US,34.144485,-118.3945
Tempe,US,33.426476,-111.94005
Ft. Lauderdale,US,26.145521,-80.120212
St Louis,US,38.640645,-90.262161
Chicago,US,41.89558,-87.62426
Manhattan,US,40.75964,-73.992156
Klamath Falls,US,42.229618,-121.77675
Vail,US,39.63137,-106.41668
Washington,US,38.90404,-77.043918
Staten Island,US,40.60404,-74.1751929
Indianapolis,US,39.9101286,-86.0870404
Pocahontas,US,36.27876,-90.98515
Meadowview,US,36.761414,-81.86114
Carpentersville,US,42.106187,-88.29209
Kill Devil Hills,US,36.00955,-75.65857
Easley,US,34.81571,-82.60153
Creve Coeur,US,40.645199,-89.601066
Richton Park,US,41.485354,-87.713137
Lombard,US,41.837148,-88.010095
Decatur,US,39.821807,-88.95816
Moline,US,41.514911,-90.470961
Bloomingdale,US,41.941816,-88.063545
Downers Grove,US,41.795879,-88.009525
Rolling Meadows,US,42.087402,-88.043813
Wheeling,US,42.149571,-87.913084
Losangeles,US,34.070802,-118.375841
Losangeles,US,34.046442,-118.433779
Elmonte,US,34.07716,-118.045344
Losangeles,US,34.077602,-118.344241
Riverside,US,33.980425,-117.368849
Harborcity,US,33.810596,-118.291535
Lagunahills,US,33.602495,-117.692143
Losangeles,US,34.091463,-118.279201
Palmsprings,US,33.813849,-116.545576
Losangeles,US,34.139629,-118.205281
Los Angeles,US,33.988493,-118.354677
Siouxfalls,US,43.514395,-96.748274
Thousandoaks,US,34.1742659,-118.8454092
Lagunabeach,US,33.544475,-117.783354
Northhollywood,US,34.156557,-118.396879
Pella,US,41.408763,-92.951116
Piedmont,US,33.932001,-85.6128
Palmsprings,US,33.832558,-116.546781
Lancaster,US,34.679429,-118.156854
Westwood,US,34.059605,-118.446353
Losangeles,US,34.049381,-118.239547
Riverside,US,33.978505,-117.378618
Yuccavalley,US,34.12018,-116.422305
Barstow,US,34.887691,-116.994653
Lagunahills,US,33.595352,-117.679546
Stpeters,US,38.765575,-90.6344
Tustin,US,33.759713,-117.827336
Losangeles,US,34.073494,-118.383061
Losangeles,US,34.083737,-118.365899
Louisville,US,38.259367,-85.663145
Louisville,US,38.25745,-85.718642
Haddonfield,US,39.897982,-75.03196
Denville,US,40.893507,-74.476062
Ledgewood,US,40.878057,-74.650255
Fortwaltonbeach,US,30.40985,-86.603741
Asheville,US,35.594431,-82.555785
Nashville,US,36.06205,-86.922245
Muskegon,US,43.189639,-86.263488
Charlotte,US,35.227737,-80.842601
Nashville,US,36.147921,-86.808154
Nashville,US,36.15083,-86.665679
Stmatthews,US,38.252089,-85.65289
Shermanoaks,US,34.165476,-118.4487
Ballwin,US,38.595555,-90.521464
Siouxcity,US,42.43525836,-96.36619719
Lincoln,US,40.785095,-96.654456
Wappingersfalls,US,41.589988,-73.907815
Rhinebeck,US,41.890958,-73.909088
Matthews,US,35.130916,-80.712255
Sanfrancisco,US,37.783421,-122.398686
Raleigh,US,35.789626,-78.663082
Charlotte,US,35.215306,-80.828476
Raleigh,US,35.777088,-78.638475
Greenville,US,40.108452,-84.624878
Yorbalinda,US,33.877066,-117.753845
Sanjuancapistrano,US,33.501419,-117.664216
Sanfrancisco,US,37.789223,-122.420377
Malibu,US,34.021341,-118.809484
Sandiego,US,32.755412,-117.129408
Fresno,US,36.823707,-119.808371
Encinitas,US,33.037001,-117.292193
Charlotte,US,35.226879,-80.843538
Kearney,US,40.69993038,-99.07510936
Beverlyhills,US,34.067325,-118.404856
Losangeles,US,34.068618,-118.262676
Laderaranch,US,33.563404,-117.628845
Grandrapids,US,42.957023,-85.634472
Southorange,US,40.747965,-74.244455
Elizabeth,US,40.66243,-74.233501
Asheville,US,35.594167,-82.55162
Lexington,US,38.002184,-84.44474
Auburn,US,38.938074,-121.096148
Auburn,US,38.897541,-121.076746
Davis,US,38.554063,-121.787121
Davis,US,38.544599,-121.738822
Lexington,US,37.968466,-84.503333
Mesquite,US,32.8044747,-96.6424269
Farmers Branch,US,32.934086,-96.83982
Independence,US,41.394406,-81.641883
Gramercy,US,30.050133,-90.6847
Phoenix,US,33.507664,-112.03714
Philadelphia,US,39.952109,-75.174686
Orange,US,38.246499,-78.110066
Covington,US,39.085697,-84.51068
Rochester,US,43.16995,-77.7034
Long Island City,US,40.745396,-73.95323
Hemet,US,33.75159,-116.95866
Rochester,US,43.091083,-77.6361
New York,US,40.733088,-73.990214
St Ann,US,38.732669,-90.389325
Lancaster,US,34.73363,-80.79657
Monroe,US,35.015997,-80.570736
Puyallup,US,47.164746,-122.293203
New York,US,40.773842,-73.957243
Fort Worth,US,32.68212756,-97.41159247
Jackson,US,42.258083,-84.42379
Flushing,US,40.7103,-73.8497
Naples,US,26.177294,-81.79951072
Center Point,US,42.191475,-91.78608
Lewisburg,US,40.964725,-76.88474
Batesville,US,35.765772,-91.6411955
Portland,US,43.65812,-70.26463
Urbana,US,40.110558,-88.213394
Shreveport,US,32.4799,-93.72218
Swansea,US,41.756619,-71.216635
Houston,US,29.755382,-95.626386
Marietta,US,33.968759,-84.488447
Conshohocken,US,40.095497,-75.28511
Seattle,US,47.660102,-122.313148
Eastsound,US,48.695503,-122.905945
Issaquah,US,47.556112,-122.045587
Honolulu,US,21.292996,-157.837241
Clearfield,US,41.10839644,-112.0197936
Moab,US,38.59372,-109.56718
Cambridge,US,42.373964,-71.118934
Suwanee,US,34.058752,-84.079383
Fremont,US,37.546518,-121.981882
Ravenna,US,41.158,-81.254
Tampa,US,28.04312,-82.59328
Pompano Beach,US,26.250643,-80.25332
Minneapolis,US,44.979725,-93.259605
Salem,US,44.960664,-122.983613
Katy,US,29.8067979,-95.8090197
Dillon,US,39.629173,-106.05453
Ardmore,US,40.006863,-75.29035
N Brunswick,US,40.443298,-74.501982
Indio,US,33.714907,-116.229196
Chicago,US,41.9972,-87.7161
Signal Mountain,US,35.13968,-85.32837
Ashburn,US,39.019707,-77.469501
New York,US,40.654618,-73.927944
Waukon,US,43.268997,-91.47728
Atlanta,US,33.7791,-84.3824
Columbia Falls,US,48.374756,-114.1813
Temecula,US,33.5255463,-117.1588581
Alpharetta,US,34.088646,-84.27252
Lowell,US,42.64256,-71.37198
Summerville,US,33.036545,-80.155815
Albuquerque,US,35.09255,-106.53278
Nashua,US,42.761597,-71.46762
Toledo,US,41.72122,-83.596115
Oklahoma City,US,35.594788,-97.63849
Alpharetta,US,34.03825,-84.30871
Fairfield,US,38.285927,-122.10695
Sallisaw,US,35.460514,-94.77333
Camarillo,US,34.236954,-119.03708
Cincinnati,US,39.129208,-84.50968
Doniphan,US,36.63154,-90.82632
Grants Pass,US,42.45354,-123.32252
Las Vegas,US,36.196417,-115.2403218
Louisville,US,38.23571,-85.758514
Bossier City,US,32.52778,-93.72207
Columbus,US,39.968826,-83.003746
Stillwater,US,36.113625,-97.0589
Bangor,US,42.3148,-86.11164
Plymouth,US,41.96007,-70.66566
Covington,US,30.443,-90.14346
Lafayette,US,40.417313,-86.893036
Indianapolis,US,39.91235,-86.06518
New Orleans,US,29.9462,-90.07292
Central Falls,US,41.88662,-71.382355
Chalmette,US,29.93756,-89.94599
Idaho Falls,US,43.48899,-112.03657
Boston,US,42.34808,-71.08967
Saint Louis,US,38.65508,-90.29601
Steamboat Springs,US,40.48,-106.83
Shreveport,US,32.5607,-93.78501
Troy,US,36.338326,-89.15858
Oceanside,US,33.188576,-117.373604
Riverside,US,33.98331,-117.37354
Seward,US,60.101994,-149.44005
Abbeville,US,29.971548,-92.11989
Coronado,US,32.68327,-117.17889
Gaylord,US,45.038937,-84.6733
Brooklyn,US,40.619625,-73.91617
Pittsfield,US,42.449905,-73.25139
Ka'anapali,US,20.94697,-156.68784
Lawrence Township,US,40.248882,-74.74342
Grants Pass,US,42.438667,-123.327255
Dyer,US,41.49275,-87.50722
Atlanta,US,33.932323,-84.33747
Brooklyn,US,40.715906,-73.959085
Stowe,US,44.47184,-72.688416
Healdsburg,US,38.610455,-122.868965
Bell,US,33.97629,-118.1873
Arroyo Grande,US,35.120872,-120.60736
Baker,US,30.596752,-91.166306
Lasvegas,US,36.142885,-115.140441
Sandysprings,US,33.972026,-84.35853
Georgetown,US,33.393591,-79.289072
Laporte,US,41.613917,-86.728472
Marlinton,US,38.22531,-80.09686
Baton Rouge,US,30.407942,-91.0142
Lawrenceburg,US,39.08239,-84.883385
Goodlettsville,US,36.322063,-86.702805
Vienna,US,38.91717,-77.23601
Fair Oaks,US,38.643078,-121.26832
New York,US,40.755911,-73.980066
Pacific Grove,US,36.62097,-121.91904
Berkeley,US,37.853302,-122.29039
Belmont,US,37.52369,-122.27348
New Iberia,US,30.00181,-91.8179
Redmond,US,47.672653,-122.112785
Brea,US,33.91341,-117.88604
Knoxville,US,35.98197,-83.9294
Taos,US,36.405704,-105.574066
El Segundo,US,33.907574,-118.38241
Portland,US,43.65448,-70.2637
Chariton,US,41.014297,-93.30691
Washington Dc,US,38.916702,-77.02914
E Bernard,US,29.530558,-96.076219
Phoenix,US,33.655199,-111.925552
Eugene,US,44.094387,-123.0970215
Los Angeles,US,34.048435,-118.490364
Berkeley,US,37.8682354,-122.2558077
Laguna Beach,US,33.53890383,-117.7804815
Plano,US,33.0269672,-96.7806355
Stephenville,US,32.2070711,-98.2235269
Johnson City,US,36.337866,-82.372833
Provincetown,US,42.054363,-70.18225
Harwood Heights,US,41.957204,-87.806672
Sedona,US,34.78976,-111.76334
Peoria Heights,US,40.74536,-89.574
Appleton,US,44.261806,-88.4038
Arlington,US,32.6797413,-97.0926357
Sedona,US,34.863796,-111.78931
New York,US,40.7350551,-73.9859051
Lanai City,US,20.82446,-156.92012
Long Branch,US,40.302665,-73.987476
Alhambra,US,34.09,-118.15
Belmar,US,40.180792,-74.026007
Klamath Falls,US,42.212711,-121.757145
Philadelphia,US,39.970702,-75.146736
Detroit,US,42.331115,-83.038065
Brooklyn,US,40.689675,-73.969824
Wheeling,US,40.047264,-80.66224
Niantic,US,41.32116,-72.20965
Long Branch,US,40.302736,-73.987484
Brattleboro,US,42.85027403,-72.56693482
Philadelphia,US,39.9484978,-75.1619644
W Hollywood,US,34.0867615,-118.381691
Los Angeles,US,34.0905838,-118.277153
Chicago,US,41.9051476,-87.6697159
Oakland,US,37.8469658,-122.2845993
Orlando,US,28.4481754,-81.4879761
Brooklyn,US,40.71410382,-73.95113369
Industry,US,33.99106357,-117.9271285
Cary,US,35.79065088,-78.76837204
Coconut Creek,US,26.287436,-80.20174
Nashville,US,36.1954,-86.72328
San Francisco,US,37.802802,-122.402048
Seattle,US,47.66387,-122.31307
Charlotte,US,35.3058,-80.7241
New York,US,40.714804,-73.999021
Austin,US,30.264976,-97.732442
Milpitas,US,37.40502,-121.90627
Norwalk,US,41.12576,-73.4195
Austin,US,30.217503,-97.755452
Decorah,US,43.3044,-91.78589
Fresno,US,36.807806,-119.857559
Corona,US,33.824742,-117.517152
Durango,US,37.268536,-107.87404
Meadowview,US,36.76102,-81.86109
College Park,US,38.981655,-76.938156
New York,US,40.7283974,-73.9880753
New York,US,40.756012,-73.980306
Salem,US,42.5212961,-70.8974458
Kittanning,US,40.81514,-79.51886
Clyde,US,32.415634,-99.512924
Fort Worth,US,32.7379432,-97.4339991
Independence,US,39.0483237,-94.3678838
Irving,US,32.847745,-96.992036
St Louis,US,38.6249832,-90.1879459
Grand Rapids,US,42.912552,-85.594808
Houston,US,29.7586427,-95.3659175
Oak Brook,US,41.850864,-87.954834
Glendale,US,39.698044,-104.9402
Decatur,US,39.84061374,-88.9725852
Madison,US,43.0875715,-89.3635554
Nashville,US,36.141737,-86.816244
Palm Bay,US,28.034939,-80.612465
Phoenix,US,33.577856,-112.124642
Ocala,US,29.243498,-82.116959
Greenville,US,34.820926,-82.28161
Buena Park,US,33.8474142,-117.995377
Davenport,US,41.56039,-90.569016
Dublin,US,40.10298,-83.15815
Scobey,US,48.793693,-105.413482
W Linn,US,45.3630113,-122.6479136
Tracy,US,37.754133,-121.466458
San Francisco,US,37.790862,-122.419906
Stevens Point,US,44.5323,-89.5745
Edison,US,40.511558,-74.383682
Houston,US,29.723806,-95.34441
St Louis,US,38.5753919,-90.2547318
Glen Rose,US,32.233562,-97.76922
Batesville,US,35.70045,-91.625145
Eleele,US,21.90478,-159.58539
Santa Ana Pueblo,US,35.350768,-106.54692
Pangburn,US,35.426376,-91.837579
Wrightsville Beach,US,34.21586,-77.80849
Waupaca,US,44.35767,-89.0849
Richardson,US,32.947918,-96.730515
De Pere,US,44.447193,-88.06953
Conroe,US,30.2864,-95.48242
Mccloud,US,41.252495,-122.13904
Paris,US,39.004615,-77.951666
Danville,US,37.824654,-122.00271
Somerset,US,40.494778,-74.46346
Santa Barbara,US,34.424305,-119.70531
Janesville,US,42.717045,-89.001686
Sheldon,US,43.18592,-95.854225
Stonington,US,41.33524,-71.90697
Seguin,US,29.568731,-97.94904
Seward,US,60.10214,-149.44048
Bernardston,US,42.670773,-72.54766
Taos,US,36.40726,-105.57379
Collegedale,US,35.053,-85.0502
New York City,US,40.73673,-73.98175
Nokomis,US,27.116854,-82.44975
Kissimmee,US,28.310096,-81.4652849
Ligonier,US,40.24253,-79.23844
Swampscott,US,42.478433,-70.907279
Laramie,US,41.312256,-105.59508
New York,US,40.715879,-74.007477
Greensboro,US,36.06951,-79.805697
Orlando,US,28.450162,-81.402655
Salt Lake City,US,40.666344,-111.82223
Haleiwa,US,21.59136,-158.10263
Lancaster,US,40.0692541,-76.336701
Platte City,US,39.35175,-94.76338
Hartwick,US,42.70014,-74.92431
Sacramento,US,38.496443,-121.426243
Provo,US,40.2561676,-111.6483986
Sedona,US,34.8627,-111.78422
Chaffee,US,37.189746,-89.66737
Washington,US,38.897848,-77.024402
Waterbury,US,44.33776,-72.75639
Livermore,US,37.691185,-121.774515
Algona,US,47.278335,-122.248554
Naples Park,US,26.271685,-81.79868
San Francisco,US,37.78262,-122.4712
Crossville,US,35.957987,-85.030951
Lynnwood,US,47.86299,-122.283595
Denver,US,39.750002,-104.993129
Arkadelphia,US,34.121275,-93.084101
Haiku,US,20.914211,-156.32356
Ashland,US,46.59052,-90.88825
Los Angeles,US,34.09413137,-118.327614
Lubbock,US,33.577435,-101.89468
Hollister,US,36.61187,-93.23067
Livonia,US,42.424935,-83.429376
Naples,US,26.130882,-81.771823
Rosemont,US,41.976147,-87.86611
Jeffersonville,US,44.588646,-72.7914
Anaheim,US,33.80342,-117.91428
Fresno,US,36.779729,-119.788425
Rochester Hills,US,42.638069,-83.095225
Carrollton,US,33.009424,-96.887163
Richmond,US,37.55181,-77.453016
Portland,US,45.46438,-122.57908
Pittsburgh,US,40.44329699,-79.99620726
Folsom,US,39.8829258,-75.3362024
Boone,US,36.21686001,-81.67612254
Cherry Hill,US,39.878372,-74.95654
N Bethesda,US,39.042633,-77.11136
Redmond,US,47.631557,-122.13656
Nashville,US,36.138123,-86.82041
Sturgeon Bay,US,44.8277,-87.38427
Santa Monica,US,34.009445,-118.492584
Oakland Park,US,26.1813431,-80.1458516
Philadelphia,US,39.956502,-75.155845
Lawai,US,21.919014,-159.50142
Santa Fe,US,35.658794,-105.97471
Orlando,US,28.51576424,-81.3775519
W Hollywood,US,34.090627,-118.386225
Westlake Village,US,34.151032,-118.823689
Richardson,US,32.9947996,-96.7287895
Winona,US,44.05246183,-91.6375635
Bayfield,US,46.81099,-90.81587
Hawthorne,US,38.5306973,-118.6246532
Salida,US,38.52429,-105.98951
Dyersburg,US,36.14127,-89.38261
Pikesville,US,39.388214,-76.73606
Corona,US,33.899601,-117.55564
Oakland,US,37.826526,-122.252261
Gunnison,US,38.552555,-106.92567
Everett,US,47.919797,-122.22911
Chowchilla,US,37.113632,-120.270875
Kenosha,US,42.56731,-87.89873
Baltimore,US,39.3555,-76.52982
Rickreall,US,44.994232,-123.212986
Columbia,US,34.137703,-80.91521
Traverse City,US,44.7629,-85.62058
Lancaster,US,34.732544,-80.7771
Dallas,US,32.73488,-96.809326
Santa Barbara,US,34.43929,-119.74918
Bloomington,US,44.853568,-93.242796
Fort Cobb,US,35.098705,-98.43625
Campbell,US,42.2254049,-77.2163213
St Louis,US,38.749087,-90.255277
Cooperstown,US,42.700123,-74.924225
Monterey,US,36.60067,-121.89346
Astoria,US,40.760833,-73.90898
Berryville,US,39.151157,-77.98146
E Peoria,US,40.66461,-89.56632
Florence,US,43.980183,-124.10167
Moab,US,38.57299807,-109.5497847
Brewster,US,41.75681,-70.06695
Maryland Heights,US,38.713543,-90.45406
Narragansett,US,41.43,-71.48099
Wellfleet,US,41.93696,-70.02988
Vineyard Haven,US,41.456062,-70.603165
Springfield,US,42.104633,-72.59468
Santa Cruz,US,36.980442,-122.00917
Smyrna,US,35.97861,-86.56226
San Luis Obispo,US,35.274742,-120.66894
Detroit,US,42.407581,-83.235399
Glenwood Springs,US,39.55615583,-107.3442798
Lubbock,US,33.519739,-101.9073447
Santa Fe,US,35.68656053,-105.9397552
Jamaica Plain,US,42.312454,-71.11413
Los Angeles,US,34.12657301,-118.2637143
Salt Lake City,US,40.780457,-111.92755
Saint Louis,US,38.6608,-90.35615
Houston,US,29.920393,-95.607746
Van Nuys,US,34.200864,-118.501199
Astoria,US,40.761932,-73.925285
Volcano,US,19.435404,-155.22406
Eugene,US,44.049608,-123.092155
Montclair,US,40.84247,-74.20813
Plano,US,33.01903,-96.79571
Columbus,US,40.009624,-83.010506
Rockingham,US,34.955049,-79.7961538
Huntington Park,US,33.975239,-118.234032
New York,US,40.7294264,-73.9996681
Kailua-kona,US,19.610579,-155.97916
Washington,US,38.910194,-77.03849
Doral,US,25.811728,-80.35527
Seattle,US,47.68059,-122.32475
Cedar Park,US,30.52967986,-97.81454469
Charlotte,US,35.035198,-80.80483
Ann Arbor,US,42.27915627,-83.74852557
Iowa City,US,41.65969,-91.53309
New Smyrna Beach,US,29.011091,-81.07114
Knoxville,US,36.0219432,-83.9252955
N Miami Beach,US,25.943681,-80.121233
Cortez,US,37.3496,-108.5724
Neptune Beach,US,30.323639,-81.395164
Santa Clara,US,37.352886,-121.975105
Northport,US,33.198745,-87.522482
Exton,US,40.070733,-75.679719
St Louis,US,38.698996,-90.288896
Wichita,US,37.692551,-97.426192
Cocoa Beach,US,28.32015,-80.61045
Pittsburgh,US,40.43207,-79.95854
New York,US,40.760281,-73.965724
Chandler,US,33.301721,-111.898723
Murphy,US,35.0502003,-83.964842
Manchester,US,41.807238,-72.545579
Duluth,US,34.0228641,-84.1472142
Greensburg,US,39.35165,-85.47961
Langley,US,36.474537,-95.051167
Dunwoody,US,33.932357,-84.337479
Gilbert,US,33.33519,-111.78511
Alpharetta,US,34.05128,-84.22518
Brookhaven,US,31.5789232,-90.470729
Livingston,US,45.654239,-110.570063
Richland,US,46.275524,-119.27737
Centreville,US,38.83535,-77.4264
Westfield,US,40.650655,-74.347975
Leavenworth,US,47.59263,-120.66783
Lompoc,US,34.65238,-120.45773
Joplin,US,37.085722,-94.531099
Chicago,US,41.816263,-87.632643
Orlando,US,28.456031,-81.470373
Lansdale,US,40.24767,-75.29349
Phoenix,US,33.657406,-111.930115
New York,US,40.728112,-73.987541
Red Hook,US,41.995552,-73.877205
Philadelphia,US,39.9515576,-75.1703257
Cleveland,US,35.2030463,-84.8435817
Malvern,US,34.3852182,-92.8280055
Boulder,US,40.006109,-105.271193
Tuscaloosa,US,33.197585,-87.531225
Salt Lake City,US,40.734207,-111.82086
Minneapolis,US,44.99154,-93.23803
Andover,US,42.664223,-71.14353
Pepeekeo,US,19.824287,-155.09526
Kailua,US,21.393133,-157.74063
Laurel,US,39.0890331,-76.8605239
Kemp,US,32.339066,-96.19588
Houston,US,29.784662,-95.70271
Reno,US,39.5254,-119.814
Escondido,US,33.132889,-117.060218
Edinboro,US,41.874012,-80.131935
Pittsburgh,US,40.46015,-79.92498
Yuma,US,32.680405,-114.624573
Scappoose,US,45.741356,-122.87802
Houston,US,29.95053,-95.408451
Reno,US,39.471367,-119.80793
Parker,US,39.51094,-104.77074
Spokane,US,47.675862,-117.219141
Leawood,US,38.91558,-94.63971
Lahaska,US,40.34806,-75.033356
Nashville,US,39.20051,-86.23797
Claremont,US,34.107407,-117.72267
Lexington,US,37.785371,-79.442608
Syracuse,US,43.02129,-76.143282
Fort Bragg,US,39.44435,-123.80598
Scottsdale,US,33.5689,-111.887
Rogersville,US,37.108627,-93.05677
Brooklyn,US,40.689744,-73.978169
Lovell,US,44.8378,-108.386
Baton Rouge,US,30.397839,-91.107652
Aspen,US,39.186864,-106.813538
New York,US,40.715137,-74.00777
Cleveland,US,41.40505,-81.76989
Saint Augustine Beach,US,29.851793,-81.267784
Daphne,US,30.655125,-87.901658
Las Vegas,US,36.115158,-115.152725
Lexington,US,38.104324,-84.375929
Philadelphia,US,39.98039,-75.2227
Denver,US,39.719778,-104.972693
Greenwood Village,US,39.619135,-104.888892
Atlanta,US,33.809005,-84.363788
Greenwood,US,34.1961371,-82.1729877
Cape Elizabeth,US,43.567265,-70.227585
Kissimmee,US,28.340639,-81.389226
Carmel,US,39.956601,-86.116
Deridder,US,30.856236,-93.289185
Clifton Park,US,42.8697431,-73.8189787
Frisco,US,33.117676,-96.80504
Springdale,US,36.1751084,-94.168974
Albany,US,37.8905,-122.29366
Chesterfield,US,38.60665,-90.58476
Mantua,US,41.2824,-81.224
Monterey,US,36.599842,-121.893616
Woodway,US,31.506379,-97.199666
Cedar Park,US,30.469932,-97.801172
Blanchard,US,35.147205,-97.65319
Brooklyn,US,40.674076,-73.9757127
Los Angeles,US,34.045902,-118.253574
Idyllwild,US,33.74537,-116.71422
Hattiesburg,US,31.322044,-89.37853
Bloomington,US,39.17195,-86.53492
Henrico,US,37.62178,-77.52715
Rolling Meadows,US,42.087402,-88.043816
Batesville,US,34.289291,-90.086689
Louisville,US,38.181555,-85.766955
Alexandria,US,38.811184,-77.131805
Houston,US,29.738524,-95.414828
Nashville,US,36.138107,-86.819479
Brooklyn,US,40.714682,-73.94425
Pottstown,US,40.24635,-75.64894
New York,US,40.727516,-73.985115
Baltimore,US,39.286224,-76.62274
Boston,US,42.2737,-71.0677
Pearland,US,29.551871,-95.38682
Washougal,US,45.578674,-122.352165
Chicago,US,41.974196,-87.689197
Indianapolis,US,39.763123,-86.326786
Atlanta,US,33.92448,-84.38266
Ticonderoga,US,43.84878,-73.42401
Alliance,US,42.113715,-102.878852
Mason,US,39.35023,-84.319296
Independence,US,37.245701,-95.733498
Lake Placid,US,44.281124,-73.981995
Park Rapids,US,46.922543,-95.02665
Griffin,US,33.256686,-84.288131
San Diego,US,32.7971,-117.193
Miami,US,25.688219,-80.319934
W Palm Beach,US,26.69771331,-80.05268911
San Marcos,US,29.88719,-97.917114
Miami,US,25.8047715,-80.1892621
Los Angeles,US,34.059525,-118.23772
Lewisville,US,33.045927,-97.010407
Roseburg,US,43.240151,-123.36173
Houston,US,30.004942,-95.255578
Brooklyn,US,40.6321296,-74.0276958
Columbia,US,39.22015793,-76.87559518
Seattle,US,47.650921,-122.320684
Bethlehem,US,40.62186,-75.38215
Red Bank,US,40.31868,-74.07562
Dallas,US,32.9505615,-96.8042755
Henderson,US,36.02321,-115.0828344
Cocoa,US,28.37448,-80.7416
Dover,US,43.19845866,-70.87464324
Canton,US,40.849934,-81.44422
Baytown,US,29.85682,-94.864949
Englewood,US,26.968178,-82.36527
Estes Park,US,40.3748,-105.50399
Fort Myers,US,26.55399,-81.91145
San Gabriel,US,34.07964,-118.101265
Frisco,US,33.109646,-96.8058
Lawrence,US,38.9594055,-95.243577
Oakland,US,37.81020201,-122.2465529
Boston,US,42.35012237,-71.04796896
Northvale,US,41.01910462,-73.95254001
New York,US,40.72857396,-74.00711444
Pittsburgh,US,40.4531359,-79.98140149
Washington,US,38.9026573,-77.02040896
Machesney Park,US,42.3694519,-89.02007103
Danville,US,40.96333224,-76.61580636
Miami,US,25.823538,-80.187297
Newyork,US,40.729118,-74.000986
Philadelphia,US,40.0846952,-74.9593328
Philadelphia,US,39.955246,-75.202354
Manhattan,US,40.7660235,-73.9834122
Spokane,US,47.6595226,-117.4209627
W Cape May,US,38.937384,-74.927372
Vinita,US,36.63458,-95.156888
Honolulu,US,21.30013425,-157.8447152
Newton,US,42.320555,-71.205658
Sacramento,US,38.599789,-121.426925
Ann Arbor,US,42.279395,-83.7431596
Flushing,US,40.7308927,-73.8639006
Seattle,US,47.5989466,-122.3315909
Hillsboro,US,45.5034671,-122.9530815
Los Angeles,US,34.102022,-118.340435
New York,US,40.800144,-73.965935
Manhattan,US,40.7278496,-73.984088
Spring,US,30.116901,-95.440501
Los Angeles,US,33.99779,-118.42102
Atlanta,US,33.81656,-84.33493
Richmond,US,37.55033912,-77.4719174
Farmington,US,42.455757,-83.35503
Meadville,US,41.637802,-80.153046
Pasadena,US,34.15779,-118.15058
Pauls Valley,US,34.7395,-97.264854
New York,US,40.75733,-73.967902
Bellevue,US,47.57721,-122.13797
Lebanon,US,39.43421,-84.20829
Los Angeles,US,33.94351,-118.40813
Blairsville,US,34.874485,-83.957466
Lancaster,US,34.67754,-118.15655
Jackson Heights,US,40.747361,-73.884366
Oakland Park,US,26.18892,-80.1283
Bellaire,US,29.70683,-95.468
Houston,US,29.864567,-95.606622
New York,US,40.74502,-74.00241
Kansas City,US,39.04073629,-94.59473133
Salem,US,44.94078,-123.03696
Ephrata,US,47.307163,-119.5614
Quechee,US,43.64655,-72.41965
Great Neck,US,40.787647,-73.72746
Wilmington,US,33.779892,-118.264
Princeton,US,40.351013,-74.66059
Denver,US,39.779863,-104.847122
Garden Grove,US,33.78014,-118.03124
Seattle,US,47.661457,-122.32526
Herndon,US,38.95065,-77.407394
Miami,US,25.765999,-80.20759
Naperville,US,41.74733,-88.20096
Albuquerque,US,35.087483,-106.618143
Austin,US,30.24992,-97.75499
Cincinnati,US,39.12785,-84.51954
Astoria,US,40.76577,-73.91899
Sacramento,US,38.57258,-121.487607
Machias,US,44.71439,-67.45851
Longmont,US,40.14325535,-105.1314998
Atlanta,US,33.76482585,-84.35006364
Salt Lake City,US,40.72118371,-111.89416
Somerville,US,42.396008,-71.12226
Brooklyn,US,40.717607,-73.958006
Brooklyn,US,40.712665,-73.940994
Brooklyn,US,40.723608,-73.95072
Atlanta,US,33.76477382,-84.33363938
Plainfield,US,41.60032,-88.201965
Show Low,US,34.25593,-110.02419
Fort Collins,US,40.57808,-105.07954
Mayville,US,43.49486,-88.544075
Kirkwood,US,38.599155,-90.41689
Brunswick,US,43.9147,-69.965294
Pittsburgh,US,40.426815,-79.968704
Gasport,US,43.223682,-78.56175
Brooklyn,US,40.650183,-73.956957
Ambler,US,40.13928,-75.24584
San Diego,US,32.726945,-117.149558
Phoenix,US,33.50725948,-112.0373029
Philadelphia,US,39.95446,-75.154518
Minneapolis,US,45.04173,-93.24741
Santa Rosa,US,38.49689,-122.74868
Leominster,US,42.526634,-71.76084
Long Beach,US,33.77063562,-118.1821908
Foster City,US,37.545342,-122.272573
Azle,US,32.905,-97.54353
Snowbird,US,40.581894,-111.655205
Orlando,US,28.46336,-81.48036
Pasadena,US,34.146034,-118.142155
Pasadena,US,34.14592,-118.130684
St. Augustine,US,29.89086275,-81.32757403
Cambridge,US,42.372386,-71.121158
Northampton,US,42.31786926,-72.63279049
Charleston,US,32.79007494,-79.947674
Aurora,US,39.65969938,-104.8484746
Albany,US,37.890569,-122.296999
Chesterton,US,41.61107,-87.06298
Houston,US,29.738934,-95.441845
New York,US,40.74245,-73.9805
Bryn Mawr,US,40.0222215,-75.319813
Lehigh Acres,US,26.609032,-81.65322
New York,US,40.726676,-73.983627
Miami,US,25.75092797,-80.21542428
Sioux Falls,US,43.52174757,-96.73348343
Omaha,US,41.28496,-96.00741695
Woods Hole,US,41.524082,-70.670124
Boulder,US,40.05553511,-105.2826537
Des Moines,US,41.58516,-93.633782
Tucson,US,32.23105949,-110.9715764
Olympia,US,47.04537302,-122.897676
Rocky River,US,41.48136572,-81.83644725
Pacific City,US,45.199127,-123.96121
Las Vegas,US,36.109216,-115.173221
San Diego,US,32.724846,-117.169994
Cambridge,US,42.377301,-71.123175
Steuben,US,44.460789,-67.934173
Hampton,US,37.02865,-76.3563
Milpitas,US,37.417662,-121.874514
Hayward,US,46.06338,-91.21936
Camanche,US,41.786495,-90.258815
Findlay,US,41.053992,-83.606802
Canton,US,42.16306,-71.15529
Wellington,US,37.267933,-97.38738
Gaithersburg,US,39.1340366,-77.2311231
Rye,US,43.04643,-70.74694
Irving,US,32.801337,-96.960041
Las Cruces,US,32.317114,-106.751409
Panama City,US,30.18975,-85.671597
Little Rock,US,34.755135,-92.417244
Hatboro,US,40.184013,-75.116356
Avondale,US,33.46468,-112.27897
Rock Springs,US,41.584889,-109.225476
Baldwin,US,40.639625,-73.608139
Brooklyn,US,40.6415278,-74.0032728
Palmyra,US,40.278164,-76.59971
Arlington,US,38.88552,-77.097244
Havre,US,48.55314,-109.676674
W Palm Beach,US,26.723385,-80.086093
Cornelius,US,35.487904,-80.874565
Orlando,US,28.529156,-81.310303
Yerington,US,38.988963,-119.163156
Fenton,US,42.78957,-83.74686
Fayetteville,US,38.05277,-81.103676
Littleton,US,44.308018,-71.756004
Stone Harbor,US,39.0548,-74.7609
Mcminnville,US,45.199776,-123.166954
Pigeon Forge,US,35.808662,-83.57717
Reedsport,US,43.695103,-124.12318
Dickson City,US,41.46322,-75.65263
Wallingford,US,41.45402,-72.817345
Benton,US,34.575027,-92.588291
Deland,US,29.04409,-81.30299
Parkin,US,35.27565,-90.570419
N Port,US,27.05849,-82.26167
New York,US,40.72,-73.99
Philadelphia,US,40.048306,-75.01297
Jackson,US,42.291,-84.4237
San Antonio,US,29.462461,-98.465667
Wadena,US,46.442414,-95.135948
Danbury,US,41.3859,-73.45852
Stanwood,US,48.240124,-122.36664
Saint Cloud,US,45.549628,-94.2070027
Killen,US,34.856401,-87.499255
Lancaster,US,34.67507,-118.114418
Marlboro,US,40.8456,-74.164247
Gainesville,US,29.677144,-82.294638
Austin,US,30.2597045,-97.7375656
Hershey,US,40.299786,-76.65964
Ridgeland,US,32.411354,-90.10795
Memphis,US,35.122154,-90.06205
N Palm Beach,US,26.807837,-80.05936
Colby,US,39.369832,-101.054868
Atlanta,US,33.771218,-84.388858
New York City,US,40.751,-73.98
Austin,US,30.273634,-97.799603
Bossier City,US,32.529859,-93.68386
Astoria,US,40.7605902,-73.9176844
Sugar Land,US,29.59463,-95.625531
Lake City,US,38.024223,-107.31687
Hollywood,US,26.014462,-80.11749
Spartanburg,US,34.95158,-81.928465
Fairfax,US,38.87234,-77.229454
Marshfield,US,44.66016,-90.178086
New Hartford,US,43.073093,-75.289474
Hayward,US,46.015793,-91.48278
Decatur,US,33.797504,-84.28219
Mission,US,39.022808,-94.657086
Evergreen,US,39.590168,-105.310326
San Francisco,US,37.76147008,-122.4194527
Osseo,US,45.092303,-93.42677
Milwaukee,US,43.023136,-87.92238
Vail,US,39.643894,-106.39016
Fayetteville,US,36.082115,-94.1563
San Francisco,US,37.80716,-122.41897
Austin,US,30.356548,-97.731302
Littleton,US,39.580387,-105.13632
Greenville,US,34.84246,-82.3636
N E,US,39.601692,-75.94329
Aventura,US,25.957544,-80.14411
Houston,US,29.749303,-95.462209
Ocala,US,29.182558,-82.14038
Bremerton,US,47.56738,-122.653305
Cincinnati,US,39.239644,-84.3486
Falmouth,US,43.69849,-70.2415
Lubbock,US,33.58698247,-101.8686144
New York,US,40.7329097,-74.0000177
Oakland,US,39.509834,-79.3232
Roseville,US,38.74427,-121.25922
Rosendale,US,41.843912,-74.083573
Seattle,US,47.614521,-122.314435
Bellevue,US,47.622875,-122.13244
Ely,US,47.90346,-91.86415
Eugene,US,44.03980955,-123.092336
Charlottesville,US,38.03406,-78.49953
New York,US,40.821228,-73.95053
Northampton,US,42.319571,-72.629118
Suwanee,US,34.0049,-84.08576
Orlando,US,28.554214,-81.345444
Ft Lauderdale,US,26.13798729,-80.1215589
Moorestown,US,39.96532,-74.94311
Richmond,US,37.549484,-77.452236
Cheboygan,US,45.64607,-84.475464
Ogden,US,41.190475,-111.981393
Silver Spring,US,38.9901657,-77.0257339
Mystic,US,41.35225,-71.96371
Hilo,US,19.71924,-155.08185
Pawtucket,US,41.858128,-71.390564
Hurst,US,32.8269789,-97.2015174
Galveston,US,29.304527,-94.796146
Boulder,US,37.901512,-111.4248
Hillsboro,US,45.5301142,-122.9320126
New York,US,40.7274475,-74.0017014
Savannah,US,32.064617,-81.09699
Austin,US,30.358452,-97.735613
Philadelphia,US,39.954349,-75.156652
Dallas,US,32.780056,-96.803733
Mckinney,US,33.197768,-96.614986
Woodland Hills,US,34.168476,-118.60479
San Francisco,US,37.7824,-122.479
Torrance,US,33.79121,-118.3289941
Granby,US,41.95268,-72.787445
Kailua-kona,US,19.64012,-155.99644
Farmington Hills,US,42.50895,-83.35913
Boston,US,42.3452077,-71.0870747
Sanford,US,28.81163694,-81.26698514
San Francisco,US,37.787807,-122.41365
Stowe,US,44.465282,-72.68689
Nevada City,US,39.263714,-121.01947
Salt Lake City,US,40.6941952,-111.9579171
Palm Beach Gardens,US,26.83908259,-80.10982872
Paia,US,20.917784,-156.382342
Philadelphia,US,39.94177,-75.154
Spokane,US,47.74915,-117.40227
Hopkins,US,44.924232,-93.41033
Schaumburg,US,42.03858422,-88.03623676
Murphys,US,38.137627,-120.4643
Santa Monica,US,34.021797,-118.48672
Santa Monica,US,34.03188752,-118.4827316
Bethesda,US,38.90877,-76.99783
San Francisco,US,37.76586,-122.45701
Cleveland,US,41.47861,-81.683685
Lubbock,US,33.5629099,-101.8456037
Scottsdale,US,33.53111,-111.96582
San Francisco,US,37.78145,-122.41708
Andover,US,42.66436,-71.14575
Minneapolis,US,44.9877937,-93.254039
Manitou Springs,US,38.858223,-104.91628
Exton,US,40.024982,-75.64515
San Francisco,US,37.80041702,-122.4376917
Manhattan,US,40.7271189,-73.9839608
Bismarck,US,46.796043,-100.77879
W Hollywood,US,34.08219,-118.38815
Denver,US,39.666762,-105.081225
Omaha,US,41.306938,-96.0766694
Brooklyn,US,40.689727,-73.978314
New York,US,40.755618,-73.9942669
Hollywood,US,26.011234,-80.14699
Austin,US,30.208174,-97.780459
Bryn Mawr,US,40.022408,-75.319565
W Palm Beach,US,26.677965,-80.054351
Hopkins,US,44.928463,-93.385994
Irving,US,32.895927,-96.96089
Plano,US,33.028872,-96.769638
Houston,US,29.9818528,-95.5092782
New York,US,40.727067,-73.9839928
Brooklyn,US,40.6829728,-73.9644607
Rochester,US,44.009686,-92.44238
Philadelphia,US,39.945259,-75.164128
Oakland,US,37.7937489,-122.2704319
Washington,US,38.9194299,-77.0311521
Statesboro,US,32.41641,-81.77098
Camp Verde,US,34.564194,-111.85459
S Jordan,US,40.55686,-111.93868
Imperial Beach,US,32.72315,-117.23008
Menlo Park,US,37.45287,-122.1835
Laconia,US,43.55728,-71.45497
Philadelphia,US,39.94172,-75.15042
Edmond,US,35.62219239,-97.481668
Los Angeles,US,34.07586122,-118.356657
Long Beach,US,33.771717,-118.16726
New York,US,40.75205,-73.976326
Los Angeles,US,34.073108,-118.450113
Little Rock,US,34.77156,-92.39792
Los Angeles,US,34.10175,-118.30094
Seattle,US,47.598153,-122.326369
Vero Beach,US,27.660206,-80.403786
Mansfield,US,32.582736,-97.133423
Boulder City,US,35.977297,-114.836222
Eugene,US,44.06393,-123.078415
Dallas,US,33.010743,-96.843952
Baltimore,US,39.2896,-76.61301
New York,US,40.739644,-73.988501
Newfane,US,43.28323,-78.70859
Ship Bottom,US,39.65112,-74.17458
Brooklyn,US,40.6693635,-73.98613
Catonsville,US,39.246089,-76.733856
Kansas City,US,39.24924,-94.66068149
Parlin,US,40.459282,-74.283264
Pittsburgh,US,40.429134,-79.984566
Denver,US,39.73846,-104.93384
Bristow,US,35.828735,-96.39106
Weimar,US,29.701275,-96.776376
Fort Lauderdale,US,26.1005629,-80.130851
Beverly Hills,US,34.07022543,-118.4015883
Madison,US,43.07483,-89.390656
Burbank,US,34.1814419,-118.31119
Charleston,US,32.94465466,-80.04289634
Ypsilanti,US,42.24595,-83.60949
Gettysburg,US,39.839155,-77.257962
Lakeland,US,27.998104,-81.976509
Oklahoma City,US,35.49331,-97.60488
Seattle,US,47.6134251,-122.3142457
Pensacola,US,30.41825,-87.19968
Kapaa,US,22.061262,-159.32245
Tustin,US,33.74177931,-117.8189589
Tustin,US,33.69652994,-117.8261375
Providence,US,41.822468,-71.41017
Newport,US,44.66919,-124.0578
New York,US,40.8676363,-73.9214465
Trinidad,US,41.06036,-124.14312
Puyallup,US,47.19184,-122.283
Redmond,US,47.67556,-122.12162
Phoenix,US,33.47115,-112.0651
Washington,US,38.974453,-77.018097
Monroe,US,41.894512,-83.41631
Traverse City,US,44.75170255,-85.59397755
Waterville,US,44.55155461,-69.63061189
Houston,US,29.737828,-95.418198
Parsons,US,39.096554,-79.675095
Cambridge,US,42.36535,-71.104868
Blacksburg,US,37.23049,-80.41555
Cape Girardeau,US,37.306103,-89.55232172
St. Louis,US,38.656397,-90.308129
Anacortes,US,48.5189531,-122.6123
Louisville,US,38.248114,-85.730793
Chicago,US,41.891867,-87.633928
Sarasota,US,27.336723,-82.54193
Sikeston,US,36.86945,-89.61172
Bonners Ferry,US,48.681973,-116.324066
Phoenix,US,33.487576,-112.031617
Los Angeles,US,34.040339,-118.463812
New York,US,40.778973,-73.98248
Cleveland,US,41.498879,-81.698084
Sherman Oaks,US,34.150391,-118.446939
Torrance,US,33.79383,-118.329939
New Haven,US,41.31087,-72.930176
Luling,US,29.91166,-90.35241
Skowhegan,US,44.765053,-69.71932
Eau Claire,US,44.81007,-91.49864
Rockland,US,44.08990843,-69.11050022
Orland,US,39.74722436,-122.19525
Miles City,US,46.39964961,-105.8229893
N Bennington,US,42.93052,-73.24258
Lahaina,US,20.87545226,-156.6800919
La Vista,US,41.17825481,-96.041559
New Paltz,US,41.74981937,-74.08710274
Fort Gibson,US,35.78529,-95.24167
Oakhurst,US,37.327117,-119.660869
Dallas,US,32.842229,-96.770401
W Hollywood,US,34.090472,-118.376128
Saltlakecity,US,40.762774,-111.896232
Union City,US,36.429333,-89.05665
Nashville,US,36.138138,-86.81961
Jamaica Plain,US,42.31164,-71.11437
Mountain View,US,35.86851,-92.1043
Newkirk,US,36.8824,-97.05215
Denham Springs,US,30.481491,-90.955956
Laconia,US,43.572216,-71.49058
Carbondale,US,39.407152,-107.2204149
Jennings,US,30.23503654,-92.66303658
Glenwood,US,45.650203,-95.370552
Atlanta,US,33.88795089,-84.47299213
Atlanta,US,33.881495,-84.319153
Advance,US,37.10356,-89.9072
Corydon,US,40.75839,-93.31814
Pleasanton,US,28.97138,-98.47552
Albuquerque,US,35.185986,-106.68534
Baton Rouge,US,30.395359,-91.10938
Garden Grove,US,33.77454553,-117.9770155
Richmond,US,37.582607,-77.48149
Wynnewood,US,40.00174733,-75.27415752
Chicago,US,41.93609,-87.66364
San Francisco,US,37.776155,-122.418641
San Jose,US,37.333041,-121.914167
Ward,US,35.02967,-91.95455
Patchogue,US,40.749825,-73.009959
Louisville,US,39.978464,-105.132105
Seattle,US,47.624087,-122.355371
Philadelphia,US,39.951908,-75.173213
Ann Arbor,US,42.30494,-83.696337
Covington,US,39.088541,-84.507719
Brooklyn,US,40.730095,-73.957909
Kansas City,US,39.097225,-94.583199
Honolulu,US,21.311075,-157.86036
San Francisco,US,37.792835,-122.421156
Dallas,US,32.995805,-96.830098
Dallas,US,32.878268,-96.71882
Duluth,US,46.81733,-92.078022
Saugatuck,US,42.656534,-86.204754
Raleigh,US,35.78708,-78.646993
Baltimore,US,39.298752,-76.615601
Roseville,US,38.723233,-121.289592
Annapolis,US,38.976396,-76.502845
Baltimore,US,39.27308,-76.61189
Mill Creek,US,47.860248,-122.220903
Harrisburg,US,40.304284,-76.843205
Glendale,US,33.639,-112.1813784
Las Vegas,US,36.155132,-115.334815
Raleigh,US,35.838558,-78.644284
Collingswood,US,39.920328,-75.080266
Cincinnati,US,39.127904,-84.513837
Brandon,US,27.924316,-82.31725
Beaverton,US,45.49475978,-122.8102165
Woodburn,US,45.151363,-122.834724
Hugo,US,34.010353,-95.50427
Brooklyn,US,40.70761,-73.941637
Lodi,US,40.88479827,-74.0822959
Orlando,US,28.586501,-81.197526
Sedona,US,34.86344,-111.78494
Hermosa Beach,US,33.864334,-118.396736
Los Angeles,US,34.0750747,-118.4509313
San Francisco,US,37.76494,-122.42135
Virginia Beach,US,36.84767,-75.9749
Huntington Beach,US,33.71537,-118.0231
Seattle,US,47.620113,-122.3209
Columbia,US,39.227417,-76.814956
Grants Pass,US,42.43865,-123.326737
Camarillo,US,34.21871123,-119.0538624
Denton,US,33.20639031,-97.15045954
Cleveland,US,41.499385,-81.691966
New York,US,40.80012,-73.967532
Seattle,US,47.6495629,-122.3496733
Cocoa Beach,US,28.319937,-80.610374
Cleveland,US,41.461835,-81.457669
Newyork,US,40.728078,-73.993691
Grand Forks,US,47.914745,-97.04395
Centreville,US,38.83601,-77.425606
Brooklyn,US,40.683448,-73.967232
Los Angeles,US,34.077243,-118.258789
Northfield,US,39.3839,-74.55597
Minocqua,US,45.87773,-89.70312
Rye,US,40.983334,-73.684619
Herndon,US,38.953227,-77.407787
Southaven,US,34.9548105,-89.9899006
Austell,US,33.860122,-84.619062
Easton,US,38.78082,-76.07567
Dublin,US,32.53901803,-82.94022451
Novi,US,42.489415,-83.475953
Auburn,US,38.899807,-121.06953
Milan,US,41.31862,-82.595314
Caldwell,US,43.632849,-116.643509
Okmulgee,US,35.61154,-95.96194
King Of Prussia,US,40.08609,-75.39616
Hospers,US,41.657605,-95.317846
Stlouis,US,38.659979,-90.356133
Grand Rapids,US,42.96167,-85.66916
Park Rapids,US,46.922178,-95.05528
Roseville,US,38.744354,-121.256716
Pottsville,US,40.68306,-76.194626
Brooklyn,US,40.679665,-73.968482
Phoenix,US,39.501312,-76.58009
Manhattan,US,40.775534,-73.956354
Flagler Beach,US,29.472628,-81.17773
Kanab,US,37.04654,-112.52638
Charleston,US,32.79174,-79.94034
Dallas,US,32.656754,-96.781438
Hudson,US,41.855804,-84.3619
Alexandria,US,38.780685,-77.066002
Bloomsburg,US,41.00416,-76.4543
Barrington,US,42.16155,-88.139
Ephrata,US,47.320988,-119.55112
San Clemente,US,33.426525,-117.61165
Huntingdon Valley,US,40.16673,-75.0636
Chattanooga,US,35.06703,-85.31507
Granbury,US,32.442463,-97.78857
Davenport,US,41.570627,-90.515618
Pittsburgh,US,40.4288,-79.985146
New York,US,40.738529,40.738529
Miami,US,25.909372,-80.15807989
Hendersonville,US,36.331612,-86.623927
Santa Fe,US,35.68551,-105.94473
Cody,US,44.52541,-109.06209
Memphis,US,35.14768,-89.97207
Saint Louis,US,38.655556,-90.300705
El Paso,US,31.858072,-106.435851
Charleston,US,32.7351,-79.96834
Capitola,US,36.97314,-121.9618
Great Neck,US,40.78837,-73.729256
Philadelphia,US,39.949326,-75.16046
Chesapeake,US,36.802032,-76.22815
Culver City,US,34.00268383,-118.4067459
Annapolis,US,38.977898,-76.48715
Eugene,US,44.04792,-123.1368
Hammondsport,US,42.409206,-77.223114
Bakersfield,US,35.31773,-119.0269
Booneville,US,35.140302,-93.914031
Nashville,US,36.121437,-86.79058
N Fork,US,37.212615,-119.553599
Atlanta,US,33.808057,-84.365883
New York,US,40.7322399,-74.0005915
Beverly Hills,US,34.069061,-118.39935
Huntingdon,US,36.001095,-88.42651
Denver,US,39.73511,-104.94612
Newburyport,US,42.81108,-70.86606
Cambridge,US,42.3730206,-71.0952288
Mount Pleasant,US,33.176396,-95.003071
Brookline,US,42.34253,-71.12033
Atlanta,US,33.804349,-84.39359814
Hillsboro,US,45.535862,-122.876945
San Diego,US,32.553925,-117.08406
Richmond,US,37.7465,-84.29744
Brooklyn,US,40.6938986,-73.9608459
Philadelphia,US,39.951568,-75.163822
Glendale,US,34.122202,-118.256322
Atlanta,US,33.959244,-84.35183
Cleveland,US,41.48609778,-81.70538587
Memphis,US,35.12066817,-89.9908164
Seattle,US,47.5985,-122.324
Smithfield,US,35.50279,-78.35034
Seattle,US,47.667655,-122.312699
Brattleboro,US,42.85036758,-72.55782819
Pasadena,US,34.1346,-118.1473
Chicago,US,41.916,-87.7025
San Jose,US,37.33442,-121.8806
Lanham,US,38.931777,-76.853592
Mendocino,US,39.300191,-123.791364
Salt Lake City,US,40.7212279,-111.8942341
New York,US,40.755102,-73.988719
Copiague,US,40.669567,-73.390236
Pacifica,US,37.660332,-122.489209
Centennial,US,39.613149,-104.796579
New Brunswick,US,40.495632,-74.445274
Redmond,US,47.6724,-122.119
Hollywood,US,34.0979,-118.3019167
Chapel Hill,US,35.96395,-79.05444
Santarosa,US,38.462165,-122.753743
Memphis,US,35.188322,-89.851451
Henrico,US,37.619383,-77.613049
Scranton,US,41.416203,-75.66387
Charlotte,US,35.246403,-80.806468
Baton Rouge,US,30.418102,-91.17716
Cincinnati,US,39.273315,-84.326565
New York,US,40.74027,-73.99057
Bloomfield,US,40.75332,-92.41334
Austin,US,30.3758438,-97.675621
Long Beach,US,33.7949569,-118.1257617
Brainerd,US,46.3763,-94.249944
New Britain,US,41.67812,-72.78543
Portland,US,45.562618,-122.676238
Cookeville,US,36.139103,-85.50086
Seattle,US,47.68095244,-122.3249489
Eugene,US,44.046654,-123.09121
Long Beach,US,33.771717,-118.18828
Long Island City,US,40.75013,-73.9397
Sunnyvale,US,37.35235,-122.00096
Austin,US,30.332392,-97.7223
Xenia,US,39.68297,-83.938
Homestead,US,40.407066,-79.91086
Mc Rae Helena,US,32.03956,-82.84729
Rochester,US,43.10603,-77.61582
Costa Mesa,US,33.67777,-117.88653
New York,US,40.715115,-74.01007
San Jose,US,37.325134,-121.798035
New Orleans,US,29.962199,-90.06092
Milpitas,US,37.42353,-121.90451
Clarkesville,US,34.722336,-83.45037
Garland,US,32.96,-96.65
Cambridge,US,42.37213,-71.12051
Fresno,US,36.808407,-119.84573
Fresno,US,36.8084,-119.82817
Apex,US,35.73596,-78.842964
Santa Clara,US,37.35232,-121.98171
Exeter,US,42.98129,-70.95772
Tacoma,US,47.25544,-122.471535
Capitola,US,36.973305,-121.96199
Lacey,US,47.065105,-122.76568
Murray,US,36.610096,-88.32184
Plymouth,US,42.368362,-83.47086
Seattle,US,47.614027,-122.315733
Fountain Valley,US,33.72913,-117.92414
Wauwatosa,US,43.06055,-88.003204
Atlanta,US,33.909622,-84.29703
Provincetown,US,42.05254,-70.18491
Santa Ana,US,33.747993,-117.86553
Nashville,US,36.13804,-86.80071
Little Rock,US,34.756485,-92.44716
Albuquerque,US,35.084633,-106.65118
Laporte,US,41.61194,-86.71991
Newport Beach,US,33.61891,-117.92895
Oceanside,US,33.196514,-117.37853
Chattanooga,US,35.06189,-85.3072
Kent,US,47.389545,-122.202194
San Pablo,US,37.993755,-122.34639
Dania Beach,US,26.0536,-80.14371
Key W,US,24.552341,-81.798225
Ferndale,US,42.460575,-83.13654
Ann Arbor,US,42.284286,-83.74581
San Ramon,US,37.72505,-121.94316
Las Vegas,US,36.143119,-115.208517
New York,US,40.7332622,-73.999845
Dallas,US,32.9093794,-96.771342
Santa Rosa,US,38.4591,-122.7172
Newton,US,41.023678,-74.76875
San Francisco,US,37.7917263,-122.4024494
Grand Prairie,US,32.781594,-97.061085
New Braunfels,US,29.705875,-98.142248
Rancho Cucamonga,US,34.078056,-117.557594
Harrisburg,US,40.27128,-76.89346
Houston,US,29.861743,-95.532069
Santa Monica,US,34.020029,-118.454699
Denton,US,33.202918,-97.150018
New York,US,40.7278497,-73.9840898
Fort Collins,US,40.578087,-105.0775
Fresno,US,36.7587,-119.800575
Eugene,US,44.04953461,-123.0815184
Seattle,US,47.606213,-122.33379
Los Angeles,US,34.101802,-118.318212
Nevada City,US,39.250584,-121.02714
Portland,US,45.58264,-122.71947
Charlotte,US,35.220802,-80.815887
Garland,US,32.8747781,-96.6169537
New York,US,40.7233867,-73.9884131
Cedar Park,US,30.5215108,-97.8328708
Williston Park,US,40.7572,-73.6427
Elk Grove Village,US,41.993977,-88.02807
Portland,US,43.664593,-70.251724
Burlington,US,44.488262,-73.20755
Hellertown,US,40.57827719,-75.34085632
Salt Lake City,US,40.76284,-111.87677
Houston,US,29.813505,-95.411262
Spring,US,30.162153,-95.460493
Austin,US,30.393306,-97.732531
Cleveland,US,41.499874,-81.689445
Cincinnati,US,39.12789,-84.52001
Nashville,US,36.177902,-86.75137
Utica,US,42.666829,-82.994547
Des Moines,US,41.58907276,-93.64004115
Irvine,US,33.649162,-117.74502
Minnetonka,US,44.95097,-93.4202
Branson,US,36.64437,-93.285484
State College,US,40.786613,-77.87144
Los Angeles,US,34.049509,-118.436712
Los Angeles,US,34.1203856,-118.2579978
Tempe,US,33.42,-111.94
Rockwall,US,32.898822,-96.465685
Dallas,US,32.744807,-96.82124
Marlborough,US,42.90386,-72.20823
Irvine,US,33.6511269,-117.7424469
Colleyville,US,32.890949,-97.149333
Oakland,US,37.81088,-122.29438
Matawan,US,40.415975,-74.229061
Portland,US,45.528133,-122.6803
Studio City,US,34.135162,-118.3614192
Burleson,US,32.563325,-97.320054
Philadelphia,US,39.92439,-75.17562
Jackson,US,43.62102,-94.98768
Randle,US,46.53899,-121.99229
Trinidad,US,41.05327,-124.12934
Edina,US,44.87658,-93.32547
Kansas City,US,39.25094,-94.656224
Santa Ana,US,33.74572,-117.86973
Whitehouse,US,41.51811,-83.80313
Santa Monica,US,34.013744,-118.49625
Winter Park,US,28.593159,-81.353866
Houston,US,29.866961,-95.584279
Ludlow,US,43.39605993,-72.69716861
Pryor,US,36.292847,-95.32443
Silverdale,US,47.64705,-122.69393
Darien,US,41.08915,-73.458
Yulee,US,30.62572,-81.54556
Lafayette,US,30.180591,-92.072131
St Joseph,US,45.558851,-94.272524
Seattle,US,47.60172,-122.331736
Boston,US,42.31943,-71.11172
Long Beach,US,33.83132,-118.087906
Houston,US,29.754011,-95.371711
Evanston,US,42.0413017,-87.6800613
Spearman,US,36.211544,-101.207039
Lockeford,US,38.166589,-121.144776
Red Bank,US,40.35199,-74.065141
Collegeville,US,40.165897,-75.47981
Wilsonville,US,45.33852386,45.33852386
Hagerstown,US,39.64273,-77.71806
Orlando,US,28.55233,-81.46218
Ballston Spa,US,43.01621,-73.84464
New York,US,40.728813,-73.99505
Philadelphia,US,39.96163,-75.15405
Chicago,US,41.932804,-87.64428
Decatur,US,33.811035,-84.27235
Elk City,US,35.410702,-99.43934
Las Vegas,US,36.09559,-115.18984
Bridgeport,US,33.168451,-97.898181
Elmira,US,42.08401,-76.80551
New York,US,40.74257703,-73.99225205
Detroit,US,42.32499,-83.049351
Boone,US,36.168896,-81.71647
Towson,US,39.398514,-76.602936
Boston,US,42.348484,-71.08246
Keene Valley,US,44.18848,-73.7867
Manitowoc,US,44.07961,-87.69696
Atlanta,US,33.78713453,-84.38224152
Buena Park,US,33.846954,-118.02846
Corvallis,US,44.56751,-123.27395
Jamaica,US,40.6802629,-73.763363
Wolfeboro,US,43.597042,-71.24035
La Grange,US,41.815606,-87.870181
Woodstock,US,42.03975,-74.11641
W Chester,US,39.3722,-84.37234
Bend,US,44.06421,-121.26487
Philadelphia,US,39.94914179,-75.16169215
S Lee,US,42.276833,-73.28386
Brooklyn,US,40.692216,-73.998793
Scottsdale,US,33.462551,-111.926992
Ocala,US,29.18535,-82.135956
Douglasville,US,33.726184,-84.736547
Independence,US,41.396126,-81.64156
Brooklyn,US,40.701712,-73.936792
Chapel Hill,US,35.8802193,-79.0651501
Mason,US,39.3604554,-84.3107623
Alpharetta,US,34.077678,-84.353428
Kirkwood,US,38.582516,-90.406105
Farmington,US,36.72904,-108.20746
Goodyear,US,33.46138,-112.358391
Knoxville,US,35.97987,-83.904594
Washington,US,38.915802,-77.0324631
Colorado Springs,US,38.896626,-104.837051
Kent,US,47.38989,-122.20313
Kalamazoo,US,42.291641,-85.583519
Verona,US,40.50480151,-79.84349638
Owings Mills,US,39.4374,-76.77343
Westlake Village,US,34.16318,-118.82694
Greenville,US,34.844093,-82.36394
Minneapolis,US,45.200973,-93.357412
St Louis,US,38.645242,-90.261597
E Ellijay,US,34.67861,-84.47908
Houston,US,29.7700029,-95.6042155
Salisbury,US,42.817383,-70.8704
Fitchburg,US,42.581779,-71.79364
Thomasville,US,30.85559,-83.94714
Flora,US,38.6785,-88.48917
Brooklyn,US,40.713097,-73.95098
Cary,US,35.788715,-78.802528
Oklahoma City,US,35.393991,-97.507589
Bradenton,US,27.461147,-82.568626
Fort Collins,US,40.541118,-105.039114
Bloomington,US,44.85558,-93.24237
Klamath Falls,US,42.224327,-121.78349
Hazel Crest,US,41.58084,-87.66635
Mishawaka,US,41.68193,-86.194214
S Pasadena,US,34.117332,-118.15099
Atlanta,US,33.752342,-84.430438
Aspinwall,US,40.49045,-79.90484
Richmond,US,37.925728,-122.384964
Indianapolis,US,39.82811,-86.16398
Duluth,US,46.802656,-92.159208
Southfield,US,42.48189926,-83.24156087
Stony Brook,US,40.87781148,-73.1175426
Brooklyn,US,40.670888,-73.985053
Seattle,US,47.66618,-122.382477
Westfield,US,41.919807,-77.53787
Ashland,US,41.039127,-96.36866
Bellingham,US,48.772678,-122.495429
Deshler,US,41.208414,-83.903686
Stuart,US,27.179791,-80.237822
Bisbee,US,31.441844,-109.915763
Ranchocordova,US,38.627013,-121.264051
Ithaca,US,42.440866,-76.498537
Woodstock,US,42.040561,-74.118771
Pampa,US,35.566226,-100.967727
Oakharbor,US,48.302431,-122.646035
Rock Valley,US,43.20415,-96.29636
Perham,US,46.59342,-95.57189
Portville,US,42.037642,-78.339777
Tullahoma,US,35.365992,-86.205135
Salina,US,38.8011356,-97.60955232
Clearwater Beach,US,27.98148757,-82.82707965
Orlando,US,28.464964,-81.389582
Magnolia,US,33.266628,-93.227668
Burlington,US,48.475766,-122.331172
Fredonia,US,42.44061,-79.330371
Hollywood,US,34.097674,-118.325894
Edmonds,US,47.778475,-122.362959
Traverse City,US,44.67288,-85.565317
N Palm Beach,US,26.839892,-80.061813
Madera,US,36.95273,-120.081675
Oklahoma City,US,35.557253,-97.635625
Edmonds,US,47.809236,-122.385084
Ardmore,US,40.00872,-75.290405
Goodyear,US,33.464211,-112.346041
Boulder,US,37.901276,-111.42239
Harmony,US,40.8022049,-80.127679
Telluride,US,37.93775,-107.81309
W Union,US,38.795986,-83.54599
Pittsburgh,US,40.451374,-79.934242
Millville,US,39.395495,-75.0384875
Superior,US,46.70809,-92.104442
Sykesville,US,41.05192,-78.8183
Coloma,US,38.80056,-120.89036
Greenacres,US,26.6095351,-80.14659689
Vancouver,US,45.609272,-122.502869
Loveland,US,40.407502,-105.05513
Branford,US,41.27617,-72.83627
Tulsa,US,36.061397,-95.854592
New York City,US,40.73,-73.99
Fairfield,US,41.007626,-91.962776
St. George,US,37.1178,-113.544624
Provo,US,40.23366,-111.6597999
Murrysville,US,40.424922,-79.669153
Desoto,US,32.63307,-96.823629
Garrison,US,41.41857,-73.91444
Greenville,US,34.856667,-82.332974
Oxford,US,39.511086,-84.741455
York,US,43.14752,-70.67443
Belgrade,US,45.776085,-111.17617
Port Richey,US,28.295899,-82.707953
Cornwall,US,41.435314,-74.03466
Salt Lake City,US,40.75001,-111.86619
Edison,US,40.571533,-74.355179
Poway,US,32.951811,-117.066833
Victor,US,43.024356,-77.438726
Clarion,US,42.731655,-93.73438
Brooklyn,US,40.71165886,-73.95136903
St Louis,US,38.6812768,-90.4921293
Trumann,US,35.6712906,-90.5181092
Albany,US,42.65305,-73.78691
Sterling Heights,US,42.556254,-83.02888
Waterville,US,44.544395,-69.67258
Mandan,US,46.8367309,-100.8883099
Chicago,US,41.938335,-87.6492
Portland,US,45.523542,-122.674317
Tallahassee,US,30.43215265,-84.28167262
Sanfrancisco,US,37.795114,-122.407367
Charlotte,US,35.20440373,-80.79263323
Las Vegas,US,36.12557862,-115.2109128
Manhattan,US,40.7546964,-73.9880939
Garden Grove,US,33.788742,-117.92324
Memphis,US,35.185507,-89.854706
Manhattan,US,40.8048653,-73.9663367
Millville,US,39.39538,-75.03775
Charlotte,US,35.29581,-80.755135
Bluefield,US,37.253574,-81.20616
Los Angeles,US,34.025277,-118.397297
Orlando,US,28.536663,-81.27535
Birmingham,US,33.37568,-86.80684
Jersey City,US,40.708138,-74.07725
Gilbert,US,33.349234,-111.821214
Chicago,US,41.997837,-87.695251
Santa Clarita,US,34.422,-118.547
Dedham,US,42.23217167,-71.17977619
Oldsmar,US,28.049591,-82.698135
Adrian,US,41.880238,-84.0432601
Orangeburg,US,33.52202,-80.85492
Tupper Lake,US,44.22342,-74.46528
Kennewick,US,46.225713,-119.23323
Rossville,US,40.416245,-86.594826
Bellows Falls,US,43.135433,-72.44678
Cary,US,35.763245,-78.82042
White Pigeon,US,41.787425,-85.662614
Philadelphia,US,39.932447,-75.1438535
Malvern,US,40.043877,-75.52973
New York,US,40.75562497,-73.99478791
Baltimore,US,39.2913,-76.7148
Port Angeles,US,48.119892,-123.43299
Richmond Heights,US,38.6251015,-90.3230502
Xenia,US,39.68235228,-83.93820528
Seattle,US,47.61393681,-122.3163781
Northport,US,44.33769,-68.96153
San Jose,US,37.303764,-121.914066
Los Angeles,US,34.09791375,-118.3282476
The Woodlands,US,30.17591721,-95.47554626
San Diego,US,32.78709408,-117.097344
Diamond Bar,US,34.018256,-117.811395
El Segundo,US,33.92388134,-118.3959
Winston-salem,US,36.11142076,-80.28443706
Fargo,US,46.839291,-96.86275642
Bangor,US,44.838703,-68.743
Grand Rapids,US,42.95990601,-85.64428236
Portland,US,45.548896,-122.668175
Wellfleet,US,41.93067837,-70.032072
Los Angeles,US,34.18503848,-118.6047386
Olean,US,42.079723,-78.42991
Youngstown,US,41.022976,-80.633927
Las Vegas,US,36.05603818,-115.2787471
Philadelphia,US,39.94832076,-75.15701806
Dallas,US,32.79409675,-96.75010757
San Jose,US,37.33992595,-121.8823886
San Rafael,US,37.972612,-122.5229217
La Jolla,US,32.86961409,-117.2121674
Tustin,US,33.72304,-117.793248
Hastings,US,29.71155866,-81.52498662
Chandler,US,33.24683368,-111.8427425
Thousand Oaks,US,34.15302055,-118.8266084
Phoenix,US,33.471341,-112.064833
Vestavia,US,33.44934714,-86.72948345
Hicksville,US,40.76097878,-73.51548831
New Paltz,US,41.74697618,-74.08874323
Huntington Beach,US,33.730206,-117.9973
Lexington,US,37.98085283,-84.5513778
Lexington,US,38.01238,-84.420616
Boulder,US,40.008871,-105.276293
Brookfield,US,43.087234,-88.146087
Harper Woods,US,42.44261,-82.94686
Ann Arbor,US,42.280514,-83.74989
Detroit,US,42.35531,-83.066246
Saint Clair Shores,US,42.46004,-82.88298
Brooklyn,US,40.68682,-73.962868
Mount Laurel,US,39.939956,-74.962942
Mesa,US,33.39348614,-111.8717286
Alpharetta,US,34.08943629,-84.27461725
New York,US,40.74860611,-73.99240056
Huntsville,US,34.72863102,-86.62794353
Las Vegas,US,36.09911701,-115.1020861
Conway,US,35.09212366,-92.43538953
Pewaukee,US,43.05761731,-88.20442639
Oxford,US,33.61073137,-85.79506501
Winter Park,US,28.600056,-81.32703424
Las Vegas,US,36.161965,-115.134922
Rosemont,US,41.97455512,-87.86756496
Mercer Island,US,47.58841674,-122.238858
Bellevue,US,47.609131,-122.20814
Newark,US,39.69422,-75.786
Louisville,US,38.23656954,-85.71791846
Port Angeles,US,48.120174,-123.433334
Broomall,US,39.95944977,-75.35504624
Washington,US,38.9037537,-77.0188987
Berkeley,US,37.873298,-122.268813
Portland,US,45.523106,-122.641649
Chicago,US,41.922695,-87.68757
Brandon,US,27.92231011,-82.32867032
Houston,US,29.732507,-95.440243
Washington,US,38.90538,-77.05734
Madison,US,43.09247999,-89.35203145
Honolulu,US,21.29858641,-157.8527433
Sunnyvale,US,37.3743935,-122.055191
Las Vegas,US,36.07187031,-115.1070267
Huntsville,US,34.69039682,-86.57533506
Washington,US,38.9052696,-77.0673752
Scottsdale,US,33.62408962,-111.9245911
Sacramento,US,38.57841649,-121.4911938
Washington,US,38.9003371,-77.000485
Seattle,US,47.613716,-122.316998
Brooklyn,US,40.71643185,-73.96150576
Seattle,US,47.6667952,-122.383726
Flower Mound,US,33.07141248,-97.08595955
Warrenton,US,38.71340598,-77.79487374
Berkeley Springs,US,39.627354,-78.22856
New York,US,40.763888,-73.989093
Cincinnati,US,39.15346879,-84.42984975
Cincinnati,US,39.102977,-84.511427
Summit,US,40.717831,-74.35752
Eugene,US,44.047752,-123.08757
Martinsburg,US,39.44824082,-77.98742363
Washington,US,38.90968,-77.02397
Washington,US,38.9026,-77.05911
Blacksburg,US,37.23025,-80.41596
Duluth,US,33.957287,-84.13789
Fort Collins,US,40.588367,-105.07498
Salt Lake City,US,40.699867,-111.8908
Ann Arbor,US,42.253017,-83.68076
Hewitt,US,31.465008,-97.19747
Dekalb,US,41.952972,-88.724682
Anchorage,US,61.19464004,-149.9076119
New Brunswick,US,40.496972,-74.446961
Clinton,US,42.075214,-83.965248
Solon,US,41.39191,-81.44186
Duluth,US,46.790592,-92.1009
Knox,US,41.284702,-86.62066
Los Angeles,US,34.105912,-118.317526
Brooklyn,US,40.630665,-74.028227
Brooklyn,US,42.0992767,-84.2475868
Parkville,US,39.39851,-76.55915
Washington,US,38.917,-77.02916
Brooklyn,US,40.5841,-73.9328
Bald Knob,US,35.3431,-91.530369
Darien,US,31.391605,-81.444694
Springfield,US,38.772002,-77.175448
W Palm Beach,US,26.694189,-80.053995
Stayton,US,44.8097457,-122.8140158
Honolulu,US,21.31156,-157.86348
San Francisco,US,37.730936,-122.37389
New York,US,40.755648,-73.991406
Lombard,US,41.8399,-88.0106
La Puente,US,34.019768,-117.94865
Cortez,US,37.348843,-108.58961
Grand Forks,US,47.8893884,-97.0795343
Sioux Falls,US,43.514824,-96.76959
Harvey,US,29.890235,-90.057794
Flint,US,43.001992,-83.773951
Bismarck,US,46.807752,-100.787632
Bountiful,US,40.8865,-111.89215
Albuquerque,US,35.079291,-106.6217
Greenwich,US,41.02271,-73.6248
Issaquah,US,47.54605,-122.0584
Atlanta,US,33.801488,-84.392753
Jackson,US,42.25152,-84.384249
Chicago,US,41.931131,-87.767759
Vero Beach,US,27.636286,-80.39959
Tucson,US,32.284089,-110.978104
New Brunswick,US,40.495958,-74.443986
Philadelphia,US,39.9512495,-75.1660631
Dickson,US,36.060162,-87.375275
Ft Mitchell,US,39.01927,-84.576315
Boston,US,42.380669,-71.061413
Kapaa,US,22.065386,-159.31964
Brooklyn,US,40.6366013,-74.0083964
Frisco,US,33.106991,-96.805588
W Lafayette,US,40.422369,-86.907364
Waimea,US,21.957191,-159.67139
Salt Lake City,US,40.655992,-111.888355
Clifton,US,31.78108,-97.57964
Tempe,US,33.353956,-111.923739
Parkland,US,26.317831,-80.205605
Little Elm,US,33.1784803,-96.8898654
Caseville,US,43.942539,-83.272675
Pittsburgh,US,40.41039,-79.99035
Florissant,US,38.773621,-90.277806
Atlanta,US,33.879176,-84.471506
Frisco,US,33.096596,-96.80994
Phoenixville,US,40.133984,-75.514534
Seattle,US,47.65648486,-122.3116493
El Paso,US,31.72478,-106.303014
Austin,US,30.4029345,-97.6752675
El Segundo,US,33.914777,-118.39547
Chesapeake,US,36.76834,-76.23079
Lafayette,US,40.0140172,-105.1294103
Irvine,US,33.651022,-117.746845
Boca Raton,US,26.3480649,-80.086687
Austin,US,30.2500495,-97.7496094
Tysons Corner,US,38.916855,-77.22607
Myrtle Beach,US,33.77,-78.81
Broomall,US,39.958115,-75.35477
Seattle,US,47.685651,-122.336858
Kent,US,41.1503,-81.35997
Eustis,US,28.82354,-81.68861
Eden Prairie,US,44.854086,-93.435413
Houston,US,29.74472,-95.40462
Newcastle,US,35.290824,-97.61317
Pittsfield,US,39.60808,-90.770775
Melbourne,US,28.088269,-80.611365
Livermore,US,37.705524,-121.739985
Miami Beach,US,25.788083,-80.1411581
San Diego,US,32.749958,-117.2431
El Segundo,US,33.90668185,-118.3902597
Keego Harbor,US,42.599392,-83.34909
Salt Lake City,US,40.668514,-111.82377
Decatur,US,33.7765,-84.29651
Austin,US,30.2663994,-97.7478842
Killeen,US,31.090245,-97.726239
Miami,US,25.7466156,-80.3690795
Hayward,US,37.644665,-122.10502
Grand Forks,US,47.889458,-97.07103
Oxford,US,42.810136,-83.251589
Tempe,US,33.453796,-111.92642
Champaign,US,40.110267,-88.233451
W Lafayette,US,40.42204,-86.90174
New York,US,40.7769399,-73.955219
Boulder,US,40.016937,-105.27933
Fresno,US,36.808487,-119.77052
Milpitas,US,37.455563,-121.91107
Monterey Park,US,34.281,-118.875
Belfast,US,44.425873,-69.00681
Phoenix,US,33.6775362,-111.9772953
Brooklyn,US,40.707888,-73.945869
Frederick,US,39.41531799,-77.41080444
St. Louis,US,38.618131,-90.274447
Monroe,US,34.988795,-80.531528
Charlotte,US,35.226942,-80.843451
Rochester,US,40.70123,-80.282776
Houston,US,29.737085,-95.552157
Vancouver,US,45.620538,-122.553865
Philadelphia,US,39.953888,-75.18799
Murfreesboro,US,35.83255,-86.35096
San Francisco,US,37.756701,-122.4208
Chicago,US,41.79947,-87.59653
New York,US,40.72713,-73.982697
Phoenix,US,33.866156,-112.136988
Weston,US,26.121378,-80.36284
Costa Mesa,US,33.67772,-117.88658
Mason,US,30.749077,-99.231606
Denver,US,39.740185,-104.95661
San Diego,US,32.81059,-117.11685
Denver,US,39.66651783,-105.0814283
Sarasota,US,27.233079,-82.497313
Rockport,US,28.04563,-97.034454
Erlanger,US,39.026253,-84.61596
Waimea,US,19.94134,-155.8587
Ithaca,US,42.44227115,-76.48522854
Camden,US,44.20911,-69.064026
Greensburg,US,40.278534,-79.50533
Freehold,US,40.233541,-74.27343
Charlotte,US,35.316472,-80.779867
Gurdon,US,33.831409,-93.124054
Portland,US,45.53543,-122.876825
Dallas,US,32.7935874,-96.7506946
O Fallon,US,38.74918,-90.750145
Sun City,US,33.6004119,-112.2825536
Great Falls,US,47.521844,-111.330377
Chadds Ford,US,39.87532,-75.55535
Huntersville,US,35.4434065,-80.8819672
Brunswick,US,43.90973,-69.95619
Avon,US,41.46061,-82.01617
Las Vegas,US,36.193152,-115.303463
Hollywood,US,26.012622,-80.141444
Lewis Center,US,40.165101,-83.01996
Mountain View,US,37.414738,-122.100784
Lansing,US,42.733707,-84.516372
Bronx,US,40.84765,-73.85653
Cherry Hill,US,39.896546,-74.949262
Smethport,US,41.809517,-78.447174
Lantana,US,26.584755,-80.05055
Atlanta,US,33.75625,-84.3919
Sarasota,US,27.267515,-82.46091
Deridder,US,30.85702,-93.28866
Marion,US,37.741158,-88.94829
Lake Forest,US,33.617985,-117.70254
W Palm Beach,US,26.703842,-80.080592
Richardson,US,32.9612677,-96.7287468
Shreveport,US,32.455967,-93.74605
Pooler,US,32.13688,-81.25238
Seattle,US,47.681716,-122.290243
Chicago,US,41.979744,-87.668539
New York,US,40.7983885,-73.9634707
Providence,US,41.82242,-71.4102
W Hollywood,US,34.090877,-118.373089
Anderson,US,34.50082,-82.64967
Youngstown,US,41.05128,-80.66279
Houston,US,29.737302,-95.535764
Providence,US,41.85615,-71.39154
Storrs Mansfield,US,41.795887,-72.25006
Baltimore,US,39.300564,-76.62383
Blue Ash,US,39.23008,-84.37655
Houston,US,29.729348,-95.6413485
Old Orchard Beach,US,43.51557,-70.3737
Houston,US,29.97396,-95.487816
Whitney,US,31.963255,-97.324341
Midland,US,32.038913,-102.113237
Saint Robert,US,37.824432,-92.123674
Pasadena,US,34.1329787,-118.1469727
Chicago,US,41.89647,-87.643
Spring,US,30.020866,-95.524098
Charleston,US,32.782646,-79.92783
Grove,US,36.57433,-94.76918
Abilene,US,32.460945,-99.70601
Saint Petersburg,US,27.762262,-82.724396
Wenatchee,US,47.440067,-120.32486
Driggs,US,43.72226,-111.11106
Conshohocken,US,40.09457,-75.28869
Norman,US,35.218016,-97.423212
Ogden,US,41.24531,-111.96994
Honolulu,US,21.282879,-157.799486
Newark,US,39.683,-75.748
New York,US,40.754839,-73.995046
Downers Grove,US,41.75102,-88.02169
San Antonio,US,29.62731,-98.49344
Philadelphia,US,39.948978,-75.166048
Miami,US,25.80392,-80.19628
Columbia,US,33.99883,-81.04163
Bellbrook,US,39.636864,-84.084404
Sanfrancisco,US,37.797365,-122.431478
Fort Lauderdale,US,26.13744733,-80.11281967
Studiocity,US,34.139129,-118.366833
Westhollywood,US,34.083963,-118.385582
Beverlyhills,US,34.06281,-118.398956
Santamonica,US,34.016756,-118.49155
Losangeles,US,33.994761,-118.439261
Losangeles,US,34.044801,-118.238201
Portland,US,45.516548,-122.628721
Pittsburgh,US,40.441441,-80.00207
Portland,US,45.52836,-122.680617
Chicago,US,41.8995968,-87.675736
Greenwood Village,US,39.624,-104.89604
Searcy,US,35.242245,-91.72588
Peoria,US,40.77784547,-89.67512158
Boulder,US,40.01566519,-105.2581178
Indianapolis,US,39.752184,-86.135251
Sanfrancisco,US,37.769242,-122.45078
Sacramento,US,38.576963,-121.486826
New York,US,40.72145,-74.00993
Newport,US,44.94363,-72.20381
Encino,US,34.161122,-118.508061
Seattle,US,47.62306102,-122.336918
Houston,US,29.740085,-95.410488
Wrightsville Beach,US,34.21561,-77.80827
Minneapolis,US,44.948944,-93.205666
Bethesda,US,38.98563,-77.09568
New Hyde Park,US,40.751648,-73.672302
Fernandina Beach,US,30.64012,-81.456764
La Mesa,US,32.780155,-117.010113
Munster,US,41.562003,-87.517921
Baltimore,US,39.280247,-76.668662
Washington,US,38.896564,-77.02894
Baton Rouge,US,30.3968,-91.1572
Lawrenceville,US,33.89053,-84.061207
Windham,US,42.306305,-74.230804
Tulsa,US,36.059752,-95.868481
N Brunswick,US,40.44774,-74.49639
Saint George,US,37.109795,-113.56926
Bellevue,US,47.62735365,-122.1383822
Iselin,US,40.57313951,-74.33114707
San Luis Obispo,US,35.27927,-120.6632216
Costa Mesa,US,33.67745,-117.886985
New York,US,40.75857709,-73.98229415
Pittsburgh,US,40.445586,-79.948857
Milwaukee,US,43.05784967,-87.89919687
Las Vegas,US,36.10872619,-115.1698763
Houston,US,29.71947846,-95.41653438
Milwaukee,US,43.010984,-87.9141932
Portland,US,45.550242,-122.666518
Moultonborough,US,43.711735,-71.45558
Garden City,US,42.324265,-83.33088
Phoenix,US,33.31722451,-111.9769907
Wilmington,US,34.2148915,-77.90580644
Mankato,US,44.17003089,-93.99992466
Portland,US,45.5590372,-122.634221
Philadelphia,US,39.94913675,-75.16293743
Denver,US,39.733928,-104.991866
Little Rock,US,34.7674434,-92.45912759
Phoenix,US,33.51025182,-112.0277381
Green Bay,US,44.51750233,-88.02134437
Edgewater,US,40.80340106,-73.99127574
Binghamton,US,42.08987645,-75.91341409
Radnor,US,40.04133284,-75.36372185
Las Vegas,US,36.171226,-115.208148
Placerville,US,38.72890312,-120.7966405
Cherry Hill,US,39.94034358,-75.0265789
Minneapolis,US,44.92455863,-93.31512451
Sylva,US,35.369622,-83.204043
Brooklyn,US,40.729813,-73.958467
Clarksville,US,39.20439104,-76.94265783
Brattleboro,US,42.85095146,-72.55797027
Atlanta,US,33.839787,-84.36913133
Homewood,US,41.54691051,-87.66469932
Columbus,US,40.02351983,-83.0139184
Phoenix,US,33.45880849,-112.0774019
Pasadena,US,34.1509377,-118.0756874
Glendale,US,33.63976657,-112.2210385
Glendale,US,33.65337403,-112.1348602
Telluride,US,37.93775977,-107.8132355
Belfast,US,44.42612645,-69.00574617
Santa Cruz,US,36.972517,-122.024233
Bakersfield,US,35.37686217,-119.0222243
Anaheim,US,33.83382192,-117.91641
San Jose,US,37.330304,-121.886297
Chicago,US,41.88407,-87.64117
Lake Zurich,US,42.197475,-88.07673
Austin,US,30.24646315,-97.75677681
Henderson,US,36.0224047,-115.0836639
Ballston Spa,US,43.016361,-73.844084
Willimantic,US,41.71290177,-72.2169038
Schenectady,US,42.81591,-73.94583457
Key W,US,24.552683,-81.80042
Austin,US,30.414104,-97.674724
Charlotte,US,35.19555,-80.766582
Uniontown,US,39.901268,-79.72462
Fairlee,US,43.90556,-72.14678
Glen Allen,US,37.665751,-77.456932
Colonie,US,42.712494,-73.817055
Saint Augustine,US,29.893427,-81.3136
Austin,US,30.384127,-97.723393
Brooklyn,US,40.6835704,-73.9925973
Niles,US,42.01256,-87.770645
Albany,US,42.702202,-73.818893
Astoria,US,40.771698,-73.924139
Phoenix,US,41.609363,-87.63333
Mansfield,US,32.56371,-97.142296
Rockport,US,37.891876,-87.055115
Nashville,US,36.15116,-86.67007
Deer Park,US,47.947197,-117.47991
Long Island City,US,40.7471515,-73.9775305
Fairhope,US,30.5566378,-87.8932584
Fairview,US,42.05512,-80.24745
Collegeville,US,40.16402,-75.48113
Roseburg,US,43.208378,-123.34476
Miami Beach,US,25.769104,-80.133426
Bozeman,US,45.661764,-111.062662
Bay City,US,43.598133,-83.8887
Culver City,US,34.0186176,-118.4069157
Chicago,US,41.935816,-87.644465
Richmond,US,37.74704,-84.29734
Charleston,US,32.801403,-80.018242
Montrose,US,34.2051934,-118.2263309
Hana,US,20.74887,-155.98653
Cameron Park,US,38.65813,-120.97336
Grand Prairie,US,32.645412,-97.06191
College Park,US,38.9946895,-76.9256792
Fair Oaks,US,38.663425,-121.30689
Somerville,US,42.38827,-71.084885
Scituate,US,42.194992,-70.7251
Naples,US,26.27305,-81.76985
San Francisco,US,37.780018,-122.485016
Chicago,US,41.79954088,-87.58870289
Nashville,US,36.112,-86.7629
Lansdale,US,40.243805,-75.28703
Columbus,US,39.929745,-82.99578
Cleveland,US,30.318857,-94.996284
Torrance,US,33.803055,-118.34708
Addison,US,32.953073,-96.8556232
Chicago,US,41.9415,-87.66993
Chicago,US,41.75068,-87.61494
Greensboro,US,36.083829,-79.829321
Seattle,US,47.6678,-122.31304
Los Angeles,US,34.0733544,-118.360762
Grand Prairie,US,32.763278,-97.028336
Austin,US,30.27625,-97.74916
Dallas,US,32.7967195,-96.7972482
Plano,US,33.04024,-96.73527
Lakewood,US,41.48554144,-81.787915
Sandpoint,US,48.27232,-116.54922
Buckhannon,US,38.993732,-80.229836
Wilton,US,42.814617,-71.73923
Austin,US,30.25873,-97.69995
Brandon,US,32.356097,-90.0133479
Edisto Island,US,32.503604,-80.298198
Cincinnati,US,39.0837861,-84.5844808
Elgin,US,42.95735,-91.63059
Brooklyn,US,40.6085513,-73.9572809
Damariscotta,US,44.033245,-69.53221
W Palm Beach,US,26.650072,-80.056175
Wagner,US,43.081592,-98.297763
Denton,US,33.187518,-97.108388
Lake City,US,44.457025,-92.278155
Idyllwild,US,33.74442,-116.71496
Rochester,US,43.09182,-77.65783
Stockbridge,US,33.5134332,-84.2135512
New Orleans,US,29.960531,-90.058304
Boone,US,36.2069824,-81.6715291
Tulsa,US,36.14054,-95.94017
Summerville,US,33.0262649,-80.1699777
Waynesville,US,35.495689,-82.985466
Jacksonville,US,30.215815,-81.515509
Osseo,US,45.087396,-93.517399
Watkinsville,US,33.947723,-83.44865
Atlanta,US,33.761437,-84.364941
Greenville,US,33.04545,-96.17644
Saratoga Springs,US,43.10299,-73.75047
Plano,US,33.019657,-96.70747
Honolulu,US,21.31876,-157.86496
Gainesville,US,29.64902,-82.32425
Huntington,US,40.881157,-73.3963
Appleton,US,44.275185,-88.41611
Allentown,US,40.578376,-75.480573
N Hollywood,US,34.152488,-118.361088
Barrington,US,42.149742,-88.12532
Gainesville,US,29.606,-82.43951
Rhome,US,33.04535,-97.47119
New York,US,40.72204687,-73.99612784
Southington,US,41.64951,-72.87052
Easthampton,US,42.26479,-72.66699
Portsmouth,US,43.076035,-70.76057
Idaho Springs,US,39.74193,-105.515625
Dallas,US,32.99578,-96.82963
Atlanta,US,33.8369,-84.3808
Brooklyn,US,40.6257648,-74.0241667
Blacksburg,US,37.22807,-80.41257
Wilkes Barre,US,41.21913,-75.884805
Arroyo Seco,US,36.51922,-105.56884
Highland Park,US,42.18625,-87.79758
Tallahassee,US,30.461758,-84.28154
Carmel,US,39.970615,-86.128006
Redwood City,US,37.4863,-122.231
San Francisco,US,37.7758,-122.446101
Bloomfield Hills,US,42.603039,-83.263878
Miami,US,25.761942,-80.332737
Selman City,US,32.195228,-94.981865
Fort Walton Beach,US,30.445926,-86.615972
Fresno,US,36.735798,-119.75403
Arlington,US,32.756274,-97.09613
Newark,US,39.716877,-75.70229
Kihei,US,20.72026,-156.44698
Ann Arbor,US,42.271651,-83.740834
Houston,US,29.737385,-95.513946
Marina,US,36.687057,-121.79824
Fort Collins,US,40.54886,-105.0758
Kansas City,US,39.04202374,-94.59484398
Rosemont,US,41.975494,-87.865974
Lexington,US,43.267487,-82.53094
Apopka,US,28.670969,-81.45455
San Diego,US,32.74862311,-117.1307408
Southern Pines,US,35.174507,-79.390544
Sebastopol,US,38.393673,-122.818504
Newburgh,US,41.49642,-74.021866
Brooklyn,US,40.596221,-73.979026
Austin,US,30.324696,-97.70717
Silver Spring,US,38.9951538,-77.0268273
Bangor,US,44.83845,-68.74293
Houston,US,29.78388,-95.53637
S Pasadena,US,34.11244,-118.15034
New York,US,40.78518883,-73.9768476
Houston,US,29.784279,-95.464983
Fort Walton Beach,US,30.414593,-86.605385
Pittsburgh,US,40.45044,-79.98661
Sacramento,US,38.595566,-121.408941
Louisville,US,38.255283,-85.757385
Fairfield,US,38.258983,-122.058769
Portsmouth,US,43.078,-70.76127
Bethany Beach,US,38.53568,-75.057045
Omaha,US,41.24864,-96.02235
Seattle,US,47.609485,-122.3390862
Goodyear,US,33.45214,-112.35976
Amarillo,US,35.238433,-101.938464
Bronx,US,40.8557726,-73.8680797
Charlotte,US,35.217936,-80.852756
Riverside,US,33.909805,-117.45711
Dayton,US,39.779297,-84.305103
Riverside,US,33.909388,-117.459891
Derry,US,42.888615,-71.32643
Mendon,US,42.007803,-85.449393
Montpelier,US,44.259113,-72.57656
Minneapolis,US,44.980375,-93.274009
Glen Rose,US,32.233395,-97.75669
Weatherford,US,32.733027,-97.792683
Las Vegas,US,36.062,-115.243
San Francisco,US,37.7720698,-122.4309381
Brooklyn,US,40.6698173,-73.9791203
Overland Park,US,38.88152,-94.6634
St Louis,US,38.632315,-90.208457
Woodruff,US,45.8931355,-89.6995717
Chandler,US,33.305263,-111.927413
Nashville,US,36.11089,-86.744286
Toledo,US,41.652998,-83.626467
Brooklyn,US,40.701032,-73.92231
Brooklyn,US,40.623646,-74.030791
Lakewood,US,33.852231,-118.13836
Moorpark,US,34.2808,-118.8659
Waterford,US,42.69973,-83.399305
Sherwood,US,45.3565074,-122.840098
Savannah,US,32.027572,-81.09276
Shelburne Falls,US,42.603764,-72.739944
Ely,US,47.902554,-91.86422
Richardson,US,32.9755219,-96.7365208
Somerville,US,42.379381,-71.0944606
Orange,US,33.78353,-117.89072
Jackson,US,43.62098,-94.98762
Cleveland,US,41.485537,-81.787796
Warren,US,42.447372,-83.080379
Scarsdale,US,40.977055,-73.80426
Liberty Center,US,41.44387,-84.007515
Monroe,US,32.533674,-92.109823
Southfield,US,42.476879,-83.246769
San Antonio,US,29.545233,-98.512245
San Diego,US,32.7244911,-117.169899
Fond Du Lac,US,43.76401,-88.44754
Minneapolis,US,44.962733,-93.243658
Windham,US,42.308365,-74.2607
Wayne,US,40.8925879,-74.2639464
Ottawa,US,41.29926,-88.84379
Manchester,US,41.769,-72.520836
Los Angeles,US,34.076005,-118.376687
Honolulu,US,21.310267,-157.859398
Parkersburg,US,42.570237,-92.787035
Cranston,US,41.76089282,-71.45805187
Sacramento,US,38.63787,-121.50423
Ithaca,US,42.487711,-76.489128
Boothbay Harbor,US,43.853645,-69.62451
Clayton,US,34.878082,-83.40025
Brooklyn,US,40.6099996,-73.957575
Union Star,US,39.980873,-94.605238
Ruston,US,47.298725,-122.512844
St Peters,US,38.7959792,-90.5747535
New Orleans,US,29.944302,-90.18532
Atlanta,US,33.787367,-84.383405
Silver City,US,32.772602,-108.27608
Chicago,US,41.931591,-87.732268
Chico,US,39.724579,-121.811108
La Crosse,US,43.81224,-91.25298
Portland,US,45.5120934,-122.6433194
Newyork,US,40.726678,-73.986177
Baltimore,US,39.363344,-76.609844
Cuyahoga Falls,US,41.130819,-81.483789
Lawrence,US,38.96935,-95.235947
Edison,US,40.5729,-74.3396
Springfield,US,37.18052,-93.23231
Orlando,US,28.562722,-81.372981
Marietta,US,33.915997,-84.46991
Brooklyn,US,40.633698,-73.982735
San Antonio,US,29.4435196,-98.4801254
Lincoln,US,40.796637,-96.69663906
Bar Harbor,US,44.390205,-68.29313
Chantilly,US,38.894264,-77.42449
Albuquerque,US,35.143906,-106.69472
Allston,US,42.3536,-71.13738
Southampton,US,40.175746,-75.043152
Philadelphia,US,39.9544025,-75.1543954
Thomasville,US,31.91364,-87.741084
Brooklyn,US,40.5866842,-73.9658621
Minneapolis,US,44.924803,-93.29103
Monroe,US,32.516407,-92.18358
Brevard,US,35.2370349,-82.7195565
Plymouth,US,44.98953,-93.425628
Manhattan,US,40.722087,-73.99608
Lake City,US,30.175528,-82.68513
American Fork,US,40.372645,-111.786213
Provo,US,40.2175288,-111.6372781
Chicago,US,41.967563,-87.773757
Orange Beach,US,30.275387,-87.569145
Brooklyn,US,40.6734053,-73.9915368
Corinth,US,45.003742,-69.02368
Shelby,US,40.881538,-82.662892
Eagle Idaho,US,43.693412,-116.352297
Pineville,US,35.08753,-80.87178
Sedona,US,34.86282,-111.78468
Keithville,US,32.311863,-93.95153
Doylestown,US,40.3121337,-75.1258451
Allston,US,42.353697,-71.137169
Philadelphia,US,39.9688426,-75.1416981
Fort Myers,US,26.603996,-81.861298
Bloomington,US,39.164239,-86.48947
Great Neck,US,40.78725,-73.7281
Pittsburgh,US,40.45734,-79.92898
Indiana,US,40.667164,-79.132271
Long Branch,US,40.29487,-73.99844
Pittsburgh,US,40.452258,-79.9522739
Tipp City,US,39.96126,-84.17085
Salt Lake City,US,40.769369,-111.877066
Northglenn,US,39.914337,-104.986677
Midvale,US,40.61565,-111.85883
Miami,US,25.853826,-80.179656
Belleville,US,42.206921,-83.488571
Columbus,US,39.990293,-83.012883
Lincolnwood,US,42.0117,-87.7125
Buena Park,US,33.846702,-118.028416
Round Rock,US,30.507963,-97.68691
Globe,US,33.397335,-110.78804
Cedar Hill,US,32.593376,-96.937996
Passaic,US,40.8539809,-74.1323296
Shelton,US,47.276238,-122.966442
Ellsworth,US,44.532547,-68.402435
Hiram,US,33.89,-84.75
Austin,US,30.450766,-97.785479
Springer,US,36.364852,-104.59575
Westminster,US,39.5762423,-76.9970937
Cody,US,44.525448,-109.06166
Buffalo,US,42.972914,-78.696926
Charlestown,US,42.374958,-71.05395
Milwaukee,US,43.104703,-87.9168873
Temecula,US,33.481504,-117.09714
Christiansburg,US,37.162161,-80.421502
Granada Hills,US,34.264902,-118.523711
Camarillo,US,34.2342,-119.036
San Francisco,US,37.783502,-122.409236
San Diego,US,32.7484703,-117.2058105
Chicago,US,41.8004036,-87.5882339
New York,US,40.7361412,-73.9890823
Seattle,US,47.621376,-122.3509293
New York,US,40.7189026,-73.9553375
Dayton,US,30.04631,-94.89269
Los Angeles,US,33.9406204,-118.4065475
Los Angeles,US,34.1077003,-118.2667923
Los Angeles,US,34.0835266,-118.3701553
Venice,US,33.9916573,-118.4691849
Irvine,US,33.6504517,-117.8377762
San Jose,US,37.3210182,-121.9490356
Marrero,US,29.85508,-90.10546
New Orleans,US,29.976824,-90.09802
Lincoln,US,40.815098,-96.70258
Fenton,US,38.53278,-90.49365
Mount Pleasant,US,33.153603,-94.97282
Sierra Vista,US,31.503199,-110.25733
Owings Mills,US,39.43945,-76.77436
Lake City,US,38.027287,-107.31665
Waverly,US,36.08545,-87.79909
Lafayette,US,40.437817,-86.863014
Provo,US,40.23989,-111.65862
Winston Salem,US,36.091038,-80.28273
Lexington,US,38.043476,-84.503265
Medicine Lodge,US,37.28091,-98.57963
Delaware,US,40.29843148,-83.06796142
Mariposa,US,37.48443,-119.9644013
Bel Air,US,39.52477438,-76.3569653
Leesburg,US,28.82299,-81.78686
Auburn,US,38.903606,-121.07403
Saint Clair Shores,US,42.4659825,-82.89811837
Sanborn,US,43.18599167,-95.6565353
Chesterton,US,41.61025478,-87.05206355
Raleigh,US,35.77560783,-78.63936424
Norfolk,US,42.01982183,-97.43585638
Marshalltown,US,42.01820537,-92.91291181
Orange City,US,42.997524,-96.06018
Primghar,US,43.0863459,-95.62781347
Ashland,US,42.255837,-71.428234
Fairfield,US,41.00769,-91.963629
Bridgewater,US,40.58849032,-74.61059333
San Francisco,US,37.786286,-122.417309
Temecula,US,33.5237336,-117.1585491
Washington,US,38.910575,-77.038135
Los Angeles,US,34.037752,-118.232251
Friendsville,US,39.663376,-79.408066
Provo,US,40.23400119,-111.6603287
Conway,US,35.11077936,-92.44132513
Washington,US,41.29644664,-91.70577617
Brooklyn,US,40.646008,-73.998643
Solana Beach,US,32.997279,-117.273795
N Conway,US,44.052944,-71.126015
Chattanooga,US,35.0416926,-85.15082025
Port Charlotte,US,27.01077733,-82.15013355
Cartersville,US,34.153546,-84.818061
New Baltimore,US,42.68052,-82.73608
Winona,US,44.05264,-91.63756
Westbrook,US,43.752968,-70.36098
Princeton,US,40.397877,-93.58714
Charlotte,US,35.139366,-80.737434
Socorro,US,34.065235,-106.892456
Hinton,US,37.6756,-80.8892
Columbus,US,43.340866,-89.01186
Cedar Rapids,US,41.97509,-91.6773
Warrensburg,US,38.763916,-93.74013
Discovery Bay,US,37.889611,-121.620234
Wellsville,US,38.720081,-95.081949
Norfolk,US,36.91791,-76.19875
Succasunna,US,40.867719,-74.649822
Chesterton,US,41.61684,-87.04633
Cleveland,US,33.727535,-90.716943
Rocky River,US,41.483097,-81.83313
Kula,US,20.823826,-156.32973
San Diego,US,33.018453,-117.073734
Madison,US,34.682769,-86.736698
Brooklyn,US,40.640439,-74.0044123
Paulding,US,41.151577,-84.58085
Los Angeles,US,33.99235,-118.444
Coos Bay,US,43.367928,-124.21402
Danville,US,37.79826,-121.92179
Towson,US,39.400233,-76.601034
Kansas City,US,39.251554,-94.664137
Greensboro,US,36.069405,-79.88109
Norwich,US,41.524273,-72.07828
Oakland,US,37.7968321,-122.2761077
Berwyn,US,41.83646016,-87.79101849
Pikesville,US,39.372308,-76.720801
Culver City,US,34.000324,-118.40223
Memphis,US,35.033624,-89.797115
Piscataway,US,40.533603,-74.418739
New York,US,40.761288,-73.987246
Urbana,US,40.10701,-88.22401
New York City,US,40.787315,-73.95151
Spring Valley,US,41.113433,-74.044392
Cleveland,US,41.428326,-81.620412
Santa Fe,US,35.68544038,-105.9457847
Pagosa Springs,US,37.26691,-107.01937
Miami,US,25.685776,-80.398799
Corona,US,33.89394,-117.56353
New York,US,40.73207799,-73.98485184
Brooklyn,US,40.71883289,-73.95662114
Novato,US,38.114372,-122.56398
Minneapolis,US,44.99034,-93.253642
Saint Johns,US,34.49487,-109.3737
Kent,US,41.152725,-81.358215
Huntington,US,31.2888053,-94.463004
Long Branch,US,40.304108,-73.990802
Roseville,US,38.727505,-121.272064
San Francisco,US,37.76820066,-122.4216047
Voorhees,US,39.84838,-74.9774
Newport,US,40.477566,-77.13043
Gaithersburg,US,39.154859,-77.209694
Mt. Pleasant,US,32.79760954,-79.85939747
Sebastopol,US,38.40364724,-122.8244789
Culver City,US,34.02328109,-118.39516
Santa Maria,US,34.97926,-120.434204
Sioux City,US,42.446576,-96.344429
Royal Oak,US,42.48683874,-83.14641811
Dallas,US,32.8698936,-96.7741379
Farmington,US,42.46295,-83.37297
Plano,US,33.03,-96.68
Springfield,US,37.14777,-93.29587
Huntington,US,40.871258,-73.42597
Cleveland,US,41.37193,-81.8248
Edina,US,44.878616,-93.32422
Los Angeles,US,34.09067,-118.27818
Kansas City,US,39.08766629,-94.58869531
Houston,US,29.9048462,-95.5545175
Pearland,US,29.55538,-95.26215
S Lake Tahoe,US,38.925087,-119.986565
Stroudsburg,US,40.98612,-75.19129
Hilton Head Island,US,32.150271,-80.756292
Philadelphia,US,39.92872,-75.19389
W Hollywood,US,34.0785695,-118.376365
Holyoke,US,42.20402,-72.6042
Houston,US,29.78,-95.55
Brooklyn,US,40.721877,-73.957677
Manhattan,US,40.726406,-73.985642
Saint Joseph,US,39.77798,-94.80208
Ventura,US,34.280853,-119.2938
Chicago,US,41.9975199,-87.6937318
Princeton,US,40.349469,-74.660804
Jonesboro,US,44.64434,-67.60629
Evergreen,US,39.691584,-105.359087
Montpelier,US,44.25899218,-72.576557
Lake Forest Park,US,47.7527567,-122.278703
Denver,US,39.785235,-104.892229
Bala Cynwyd,US,40.005367,-75.2419
Aberdeen,US,35.1141031,-79.3864094
Frisco,US,33.175133,-96.841064
Charlotte,US,35.21319701,-80.83540082
Jamaica,US,40.666376,-73.78523
Boston,US,42.51053,-71.2355
Newark,US,37.54853,-122.04542
Scarborough,US,43.608977,-70.401631
Muscatine,US,41.451374,-91.034848
Roseville,US,38.745289,-121.309138
Woodbridge,US,38.6468096,-77.2570273
Putney,US,42.97411,-72.52177
N Myrtle Beach,US,33.805438,-78.726675
Geneva,US,41.897314,-88.343083
N Conway,US,44.07079,-71.14294
Doylestown,US,40.310363,-75.130085
Solon,US,41.39375203,-81.44509069
Brooklyn,US,40.60087,-73.938854
N Fork,US,37.230293,-119.509834
Albuquerque,US,35.095917,-106.51544
New Haven,US,41.302908,-72.919827
Flagstaff,US,35.1984347,-111.6485726
Atlanta,US,33.99582,-84.34995
Chicago,US,41.96125,-87.7016
Charlottesville,US,38.03021,-78.479225
Chicago,US,41.952859,-87.654214
Hamden,US,41.35863,-72.90991
Waimea,US,20.020079,-155.6671
Ventura,US,34.269226,-119.185879
Lake Mary,US,28.756324,-81.357072
Parker,US,39.522639,-104.765923
New Orleans,US,29.97453,-90.124802
Attica,US,37.24133,-98.22643
Apex,US,35.7230656,-78.8453806
Conroe,US,30.285011,-95.48255
Hoover,US,33.365784,-86.786224
Akron,US,41.09606265,-81.54264882
Dothan,US,31.231554,-85.445861
Lithia Springs,US,33.787029,-84.619289
Minot,US,48.227157,-101.295621
La Crosse,US,43.795845,-91.21992
Mcminnville,US,45.21001,-123.19541
Olney,US,39.150414,-77.06853
Eureka Springs,US,36.399662,-93.74067
Raleigh,US,35.775721,-78.63787
Wise,US,36.96979,-82.5946
Brooklyn,US,40.6805154,-73.9776829
Warren,US,42.492988,-83.027982
Miami,US,25.7508485,-80.2156484
San Jose,US,37.306087,-121.81197
Kennewick,US,46.191606,-119.117062
Santa Monica,US,34.0154407,-118.4899206
Houston,US,29.9639,-95.5429
Ormond Beach,US,29.25183,-81.10996
San Diego,US,32.741689,-117.130149
Maple Valley,US,47.361397,-122.020943
Burlington,US,42.51131,-71.20029
Jamison,US,40.26012,-75.08675
Huntsville,US,34.672028,-86.53151
Dallas,US,32.864878,-96.802675
Philadelphia,US,39.941924,-75.144918
Los Angeles,US,34.103559,-118.259162
Boynton Beach,US,26.464132,-80.093159
Ogden,US,41.18627,-111.948262
New York,US,40.717968,-73.98564
Tyler,US,32.274599,-95.30677
Decatur,US,33.774574,-84.294887
Carrollton,US,33.026993,-96.83967
Chicago,US,41.91035473,-87.68533103
Fort Worth,US,32.74863,-97.329249
Colorado Springs,US,38.94205,-104.77506
Omaha,US,41.23391,-96.13878
Camarillo,US,34.21869042,-119.0392578
Westlake Village,US,34.16344864,-118.8254589
Lakewood,US,39.71393802,-105.1330018
Boston,US,42.34011258,-71.09031916
Columbus,US,39.952186,-82.985539
New York,US,40.743549,-73.983523
W Reading,US,40.33587,-75.95178
Baltimore,US,39.340713,-76.590559
Black Canyon City,US,34.07098,-112.15266
Syracuse,US,43.059209,-76.148522
Leominster,US,42.4988,-71.7447
Eau Claire,US,44.8372933,-91.4747798
Taos,US,36.421885,-105.572889
Oakland Park,US,26.171053,-80.11966
The Woodlands,US,30.176952,-95.46147
Goleta,US,34.434906,-119.92049
Wethersfield,US,41.7227,-72.67294
Dayton,US,35.493412,-85.01327
Mccall,US,44.911545,-116.11816
Fayetteville,US,34.985802,-78.966483
Gonzales,US,30.23332127,-90.90915071
Boston,US,42.35145,-71.06255
Bristol,US,36.6312245,-82.1224538
Santa Fe,US,35.687207,-105.939768
Houston,US,29.9877429,-95.4985602
Saint Cloud,US,45.592365,-94.19108
Southaven,US,34.933567,-90.009636
Chicago,US,41.926159,-87.649461
Guilford,US,41.282166,-72.68257
Cape May Court House,US,39.086876,-74.81876
Lancaster,US,40.07,-76.34
Baton Rouge,US,30.3962045,-91.1088979
W Yellowstone,US,44.660233,-111.0999
Conyers,US,33.67151,-83.983045
Maumee,US,41.5856954,-83.6559221
Ashtabula,US,41.899685,-80.79939
Milton,US,30.624056,-87.021193
Nogales,US,31.38866,-110.95179
Anderson,US,40.070457,-85.652611
Atlanta,US,33.77453,-84.352516
Rockville,US,39.0772262,-77.1397971
Charlotte,US,35.20821,-80.86017
Houston,US,29.7492599,-95.6059926
Los Gatos,US,37.243496,-121.96063
Escanaba,US,45.752373,-87.077687
Doral,US,25.7933159,-80.3690534
Los Angeles,US,34.10122,-118.34509
W Chester,US,39.959596,-75.604715
Middletown,US,41.466335,-74.35658
San Francisco,US,37.782843,-122.468244
Swanton,US,41.58078,-83.88642
Canonsburg,US,40.273914,-80.15706
Fontana,US,34.042095,-117.485261
Mentone,US,34.572376,-85.57676
Fort Worth,US,32.757559,-97.451428
Bellingham,US,48.75329,-122.479164
San Francisco,US,37.7861554,-122.4325953
Idaho Springs,US,39.74196,-105.51577
Eugene,US,44.051198,-123.091998
Cody,US,44.526062,-109.05912
Austin,US,30.342643,-97.738003
Concord,US,35.3696232,-80.715074
Grass Valley,US,39.176685,-120.964684
Los Angeles,US,34.082175,-118.272268
Brooklyn,US,40.714718,-73.961359
S Ozone Park,US,40.670791,-73.821234
San Jose,US,37.25643,-121.899155
Jackson Heights,US,40.748894,-73.89269
Longview,US,32.537837,-94.74501
Canton,US,42.32289,-83.4508
Atlanta,US,33.818657,-84.35155
Brooklyn,US,40.703987,-73.93457
Seattle,US,47.612934,-122.30465
Savannah,US,32.079476,-81.093123
Sandpoint,US,48.27283,-116.5492
Crystal River,US,28.900713,-82.5933
Middletown,US,39.450653,-75.69872
Austin,US,30.261406,-97.739052
Denton,US,33.190655,-97.107822
Chicago,US,41.997512,-87.70281
Florissant,US,38.794455,-90.287762
Houston,US,29.76274,-95.36154
Fort Lauderdale,US,26.109806,-80.250369
Ocean Springs,US,30.41131,-88.8278
Chapel Hill,US,35.910187,-79.06392
Burbank,US,34.1845951,-118.3376802
Sausalito,US,37.849941,-122.479847
Cinnaminson,US,39.98664,-75.0124
Beaverton,US,45.52999,-122.84381
Sedona,US,34.862816,-111.7884
Schofield,US,44.906815,-89.60622
Douglas,US,31.345749,-109.55455
Covington,US,39.063945,-84.51057
Turnersville,US,39.743406,-75.044933
Virginia Beach,US,36.84953,-76.02764
Flushing,US,43.059643,-83.8674391
Mentor,US,41.68037,-81.30121
Brooklyn,US,40.610949,-73.962755
Brooklyn,US,40.7101,-73.9559
Pasadena,US,34.146112,-118.08971
Brooklyn,US,40.6862147,-73.9940424
Dallas,US,33.0937097,-97.0503716
Seattle,US,47.6221,-122.321061
Austin,US,30.2549555,-97.7370894
Santa Fe,US,35.6651,-105.96455
Brownsville,US,40.02201,-79.88012
Atlanta,US,33.7629836,-84.3582414
San Francisco,US,37.7981651,-122.404441
Whitehouse,US,32.249952,-95.236124
Blacksburg,US,37.229266,-80.413634
Upper Marlboro,US,38.904634,-76.847282
Wisconsin Dells,US,43.6274188,-89.7778042
Grafton,US,41.279151,-82.063169
Las Vegas,US,36.214176,-115.242411
Livonia,US,42.410557,-83.42759
Oklahoma City,US,35.3333834,-97.5476354
Killeen,US,31.1425,-97.8042
Slidell,US,30.317285,-89.825839
Bradenton,US,27.49032,-82.54845
Lahaina,US,20.87674,-156.68085
Houston,US,29.930836,-95.584613
Fernandina Beach,US,30.640118,-81.458435
Atlanta,US,33.7934217,-84.3965223
Falls Church,US,38.87343,-77.1513
Laurel,US,31.679362,-89.112768
New York,US,40.791866,-73.971954
Charlottesville,US,38.0559009,-78.496637
Baltimore,US,39.335199,-76.598756
Sebastopol,US,38.40259,-122.82083
Cleveland,US,41.261,-81.7449
Mount Vernon,US,40.401814,-82.44335
Greenacres,US,26.618532,-80.139679
Houston,US,29.763739,-95.479754
Pacific Palisades,US,34.0466979,-118.5250233
Worcester,US,42.291843,-71.80533
Lawrenceville,US,33.921018,-84.016546
Sioux Falls,US,43.51481,-96.776769
Williamsville,US,42.976376,-78.69687
Collegeville,US,40.166595,-75.47904
Pittsburgh,US,40.4237813,-79.9686778
Rockingham,US,34.920486,-79.74753
Towson,US,39.397146,-76.603651
Vero Beach,US,27.638626,-80.437651
Carson City,US,39.1284269,-119.7701226
N Port,US,27.039915,-82.22525
Piketon,US,39.059331,-83.018821
Orland Park,US,41.614895,-87.85328
Amherst,US,37.58578,-79.05185
Avon,US,39.634872,-106.52157
Stuart,US,27.194906,-80.22477
Tishomingo,US,34.237325,-96.681844
Horatio,US,33.938491,-94.354934
Downers Grove,US,41.751025,-88.022069
Vernon Hills,US,42.240509,-87.962175
Centennial,US,39.5968637,-104.8406502
Southlake,US,32.94126204,-97.13196002
Denver,US,39.750669,-104.985078
Laguna Hills,US,33.620512,-117.731589
Stillwater,US,36.133578,-97.1220869
Sutherlin,US,43.387744,-123.328591
Monterey Park,US,34.04043496,-118.1416351
Crescent City,US,29.43740335,-81.5118546
Manitou Springs,US,38.857445,-104.889011
Red Oak,US,41.01860648,-95.23409802
Vernon,US,34.00941186,-118.2195854
Franklin,US,35.95141995,-86.80854167
W Lake Hills,US,30.278946,-97.806435
Ithaca,US,42.440864,-76.498537
Rye,US,40.982494,-73.684583
Portland,US,45.55905,-122.634255
Gresham,US,45.46977,-122.326531
Tucson,US,32.275205,-110.873162
Bellevue,US,47.617346,-122.131479
San Anselmo,US,37.979315,-122.564322
San Francisco,US,37.787729,-122.413532
Phoenix,US,33.460804,-111.947765
Los Angeles,US,34.0447635,-118.2382339
Sherman Oaks,US,34.14739,-118.428814
Boise,US,43.616936,-116.20538
San Diego,US,32.714746,-117.15993
Tryon,US,35.20878,-82.238365
Atlanta,US,33.767145,-84.349031
Nampa,US,43.605026,-116.51177
Cincinnati,US,39.183693,-84.4245
Shinnston,US,39.395977,-80.29705
Fayetteville,US,38.05281,-81.10374
Saint Augustine,US,29.894976,-81.312195
Kahoka,US,40.420567,-91.72213
Saint Louis,US,38.542072,-90.29957
Newport,US,48.179646,-117.04405
Minneapolis,US,45.196545,-93.346794
Birmingham,US,33.50176,-86.79705
Canon City,US,38.440006,-105.24186
Washington,US,38.920834,-77.07186
Fairhope,US,30.523039,-87.90212
Flint,US,43.00199,-83.77523
Clarksville,US,36.6232328,-87.31905692
